{
  "version": 0.6,
  "generator": "Overpass API",
  "osm3s": {
    "timestamp_osm_base": "2014-09-30T18:04:03Z",
    "copyright": "The data included in this document is from www.openstreetmap.org. The data is made available under ODbL."
  },
  "elements": [

{
  "type": "node",
  "id": 12388528,
  "lat": 48.8108150,
  "lon": 2.3016518,
  "tags": {
    "STIF:zone": "1",
    "name": "Châtillon-Montrouge",
    "railway": "station",
    "ref:FR:RATP": "1968",
    "station": "subway",
    "type:RATP": "metro",
    "wikipedia": "fr:Châtillon - Montrouge (métro de Paris)"
  }
},
{
  "type": "node",
  "id": 12388534,
  "lat": 48.8153367,
  "lon": 2.2970255,
  "tags": {
    "STIF:zone": "1",
    "name": "Malakoff - Rue Étienne Dolet",
    "railway": "station",
    "ref:FR:RATP": "22441",
    "station": "subway",
    "type:RATP": "metro",
    "wikipedia": "fr:Malakoff - Rue Étienne Dolet (métro de Paris)"
  }
},
{
  "type": "node",
  "id": 15256266,
  "lat": 48.9530991,
  "lon": 2.6025434,
  "tags": {
    "STIF:zone": "5",
    "name": "Villeparisis - Mitry le Neuf",
    "railway": "station",
    "ref:FR:RATP": "1652",
    "type:RATP": "rer",
    "uic_ref": "8727151",
    "wikipedia": "fr:Gare de Villeparisis - Mitry-le-Neuf"
  }
},
{
  "type": "node",
  "id": 15256271,
  "lat": 48.9444287,
  "lon": 2.5670313,
  "tags": {
    "STIF:zone": "4",
    "name": "Vert-Galant",
    "railway": "station",
    "ref:FR:RATP": "1647",
    "type:RATP": "rer",
    "uic_ref": "8727143",
    "wheelchair": "limited",
    "wikipedia": "fr:Gare du Vert-Galant"
  }
},
{
  "type": "node",
  "id": 15256273,
  "lat": 48.9364157,
  "lon": 2.5348345,
  "tags": {
    "STIF:zone": "4",
    "name": "Sevran – Livry",
    "railway": "station",
    "ref:FR:RATP": "1620",
    "type:RATP": "rer",
    "uic_ref": "8727142",
    "wikipedia": "fr:Gare de Sevran - Livry"
  }
},
{
  "type": "node",
  "id": 15256281,
  "lat": 48.9322068,
  "lon": 2.4950402,
  "tags": {
    "STIF:zone": "4",
    "name": "Aulnay-sous-Bois",
    "railway": "station",
    "ref:FR:RATP": "1993",
    "type:RATP": "rer",
    "uic_ref": "8727141",
    "wikipedia": "fr:Gare d'Aulnay-sous-Bois"
  }
},
{
  "type": "node",
  "id": 15256287,
  "lat": 48.9308053,
  "lon": 2.4262059,
  "tags": {
    "STIF:zone": "3",
    "name": "Le Bourget",
    "operator": "SNCF",
    "railway": "station",
    "ref:FR:RATP": "1883",
    "type:RATP": "rer",
    "uic_ref": "8727139",
    "wikipedia": "fr:Gare du Bourget"
  }
},
{
  "type": "node",
  "id": 21310914,
  "lat": 48.8330952,
  "lon": 2.3331622,
  "tags": {
    "STIF:zone": "1",
    "name": "Denfert-Rochereau",
    "operator": "RATP",
    "railway": "station",
    "ref": "RER B",
    "ref:FR:RATP": "1904",
    "type:RATP": "rer",
    "uic_ref": "8775863",
    "wheelchair": "yes",
    "wikipedia": "fr:Gare de Denfert-Rochereau"
  }
},
{
  "type": "node",
  "id": 21590661,
  "lat": 48.9639248,
  "lon": 2.3721537,
  "tags": {
    "STIF:zone": "3",
    "name": "Pierrefitte - Stains",
    "official_name": "PIERREFITTE STAINS",
    "operator": "SNCF",
    "railway": "station",
    "ref:FR:RATP": "5561",
    "route_ref:FR:RER_D": "SOVA; FUCA; VIPE; LOVA; VUCA; FOVA; LUCA; VOVA; SUCA; VOPA; FOPA; LOPA",
    "type:RATP": "rer",
    "uic_ref": "8727116",
    "wikipedia": "fr:Gare de Pierrefitte - Stains"
  }
},
{
  "type": "node",
  "id": 26742369,
  "lat": 48.9203471,
  "lon": 2.1854282,
  "tags": {
    "STIF:zone": "4",
    "name": "Houilles - Carrières-Sur-Seine",
    "operator": "SNCF",
    "railway": "station",
    "ref:FR:RATP": "1854",
    "type:RATP": "rer",
    "uic_ref": "8738640",
    "wikipedia": "fr:Gare de Houilles - Carrières-sur-Seine"
  }
},
{
  "type": "node",
  "id": 26742372,
  "lat": 48.9378067,
  "lon": 2.1572739,
  "tags": {
    "STIF:zone": "4",
    "name": "Sartrouville",
    "operator": "SNCF",
    "railway": "station",
    "ref:FR:RATP": "1700",
    "type:RATP": "rer",
    "uic_ref": "8738641",
    "wheelchair": "yes",
    "wikipedia": "fr:Gare de Sartrouville"
  }
},
{
  "type": "node",
  "id": 26742385,
  "lat": 48.9552489,
  "lon": 2.0926200,
  "tags": {
    "STIF:zone": "5",
    "name": "Achères-Grand Cormier",
    "operator": "SNCF",
    "railway": "station",
    "ref:FR:RATP": "341403",
    "ref:SNCF:RER": "A",
    "source": "survey",
    "start_date": "1843-05-09",
    "type:RATP": "rer",
    "type:SNCF": "RER",
    "uic_ref": "8738605",
    "wikipedia": "fr:Gare d'Achères - Grand-Cormier"
  }
},
{
  "type": "node",
  "id": 26742679,
  "lat": 48.9333161,
  "lon": 2.0412201,
  "tags": {
    "STIF:zone": "5",
    "name": "Poissy",
    "operator": "SNCF",
    "railway": "station",
    "ref:FR:RATP": "1707",
    "ref:SNCF:RER": "A",
    "start_date": "1843-05-09",
    "type:RATP": "rer",
    "type:SNCF": "RER; Transilien",
    "type:SNCF:Transilien": "J",
    "uic_ref": "8738657",
    "wikipedia": "fr:Gare de Poissy"
  }
},
{
  "type": "node",
  "id": 26824343,
  "lat": 48.7882986,
  "lon": 2.4321634,
  "tags": {
    "STIF:zone": "3",
    "name": "Le Vert de Maisons",
    "official_name": "LE VERT DE MAISONS",
    "operator": "SNCF",
    "railway": "station",
    "ref:FR:RATP": "20954",
    "route_ref:FR:RER_D": "ZOPO; ROVO; ROPO; BOPO",
    "type:RATP": "rer",
    "uic_ref": "8768124",
    "wheelchair": "no",
    "wikipedia": "fr:Gare du Vert de Maisons"
  }
},
{
  "type": "node",
  "id": 27117113,
  "lat": 48.8928920,
  "lon": 2.2376272,
  "tags": {
    "STIF:zone": "3",
    "layer": "3",
    "name": "La Défense - Grande Arche",
    "public_transport": "stop_position",
    "railway": "tram_stop",
    "ref:FR:RATP": "446342;57296",
    "source": "RATP - 07/2012",
    "tram": "yes",
    "type:RATP": "tram",
    "wheelchair": "yes"
  }
},
{
  "type": "node",
  "id": 27194776,
  "lat": 48.8434237,
  "lon": 2.2219284,
  "tags": {
    "STIF:zone": "3",
    "name": "Parc de Saint-Cloud‎",
    "public_transport": "stop_position",
    "railway": "tram_stop",
    "ref:FR:RATP": "446341",
    "source": "RATP - 07/2012",
    "tram": "yes",
    "type:RATP": "tram",
    "wheelchair": "yes"
  }
},
{
  "type": "node",
  "id": 27332092,
  "lat": 48.8882286,
  "lon": 2.2493898,
  "tags": {
    "STIF:zone": "1",
    "layer": "3",
    "name": "Esplanade de La Défense",
    "railway": "station",
    "ref:FR:RATP": "1913",
    "station": "subway",
    "type:RATP": "metro",
    "wikipedia": "fr:Esplanade de La Défense (métro de Paris)"
  }
},
{
  "type": "node",
  "id": 27333361,
  "lat": 48.8849107,
  "lon": 2.2600350,
  "tags": {
    "STIF:zone": "1",
    "amenity": "bench",
    "backrest": "yes",
    "layer": "3",
    "material": "wood",
    "name": "Pont de Neuilly",
    "railway": "station",
    "ref:FR:RATP": "1709",
    "source": "survey; bing",
    "station": "subway",
    "type:RATP": "metro",
    "wikipedia": "fr:Pont de Neuilly (métro de Paris)"
  }
},
{
  "type": "node",
  "id": 27362238,
  "lat": 48.8811205,
  "lon": 2.2717733,
  "tags": {
    "STIF:zone": "1",
    "alt_name": "Les Sablons (Jardin d'acclimatation)",
    "name": "Les Sablons",
    "name:ru": "Ле-Саблон",
    "railway": "station",
    "ref:FR:RATP": "1802",
    "station": "subway",
    "type:RATP": "metro",
    "wheelchair": "no",
    "wikipedia": "fr:Les Sablons (métro de Paris)"
  }
},
{
  "type": "node",
  "id": 27362240,
  "lat": 48.8757130,
  "lon": 2.2891932,
  "tags": {
    "STIF:zone": "1",
    "name": "Argentine",
    "name:ru": "Аржантин",
    "railway": "station",
    "ref:FR:RATP": "1986",
    "station": "subway",
    "type:RATP": "metro",
    "wheelchair": "no",
    "wikipedia": "fr:Argentine (métro de Paris)"
  }
},
{
  "type": "node",
  "id": 27362249,
  "lat": 48.8718025,
  "lon": 2.3012613,
  "tags": {
    "STIF:zone": "1",
    "name": "George V",
    "name:ru": "Георг V",
    "railway": "station",
    "ref:FR:RATP": "1846",
    "station": "subway",
    "type:RATP": "metro",
    "wheelchair": "no",
    "wikipedia": "fr:George V (métro de Paris)"
  }
},
{
  "type": "node",
  "id": 27362251,
  "lat": 48.8693137,
  "lon": 2.3090043,
  "tags": {
    "STIF:zone": "1",
    "name": "Franklin D. Roosevelt",
    "name:ru": "Франклин Д. Рузвельт",
    "railway": "station",
    "ref:FR:RATP": "1924",
    "source": "survey",
    "station": "subway",
    "type:RATP": "metro",
    "wheelchair": "no",
    "wikipedia": "fr:Franklin D. Roosevelt (métro de Paris)"
  }
},
{
  "type": "node",
  "id": 27362256,
  "lat": 48.8664075,
  "lon": 2.3221380,
  "tags": {
    "STIF:zone": "1",
    "name": "Concorde",
    "name:de": "Eintracht",
    "name:es": "Concordia",
    "name:it": "Concorde",
    "name:pt": "Concórdia",
    "name:ru": "Конкорд",
    "operator": "RATP",
    "public_transport": "stop_position",
    "railway": "station",
    "ref:FR:RATP": "1885",
    "station": "subway",
    "type:RATP": "metro",
    "wheelchair": "no",
    "wikipedia": "fr:Concorde (métro de Paris)"
  }
},
{
  "type": "node",
  "id": 27362258,
  "lat": 48.8643585,
  "lon": 2.3298436,
  "tags": {
    "STIF:zone": "1",
    "name": "Tuileries",
    "name:de": "Tuilerien",
    "name:ru": "Тюильри",
    "railway": "station",
    "ref:FR:RATP": "1640",
    "station": "subway",
    "type:RATP": "metro",
    "wheelchair": "no",
    "wikipedia": "fr:Tuileries (métro de Paris)"
  }
},
{
  "type": "node",
  "id": 27362259,
  "lat": 48.8623829,
  "lon": 2.3361468,
  "tags": {
    "STIF:zone": "1",
    "name": "Palais Royal - Musée du Louvre",
    "name:ru": "Пале-Руаяль — Мюзе-дю-Лувр",
    "railway": "station",
    "ref:FR:RATP": "1774",
    "station": "subway",
    "type:RATP": "metro",
    "wheelchair": "no",
    "wikipedia": "fr:Palais Royal - Musée du Louvre (métro de Paris)"
  }
},
{
  "type": "node",
  "id": 27362260,
  "lat": 48.8607697,
  "lon": 2.3409358,
  "tags": {
    "STIF:zone": "1",
    "name": "Louvre — Rivoli",
    "name:ru": "Лувр — Риволи",
    "railway": "station",
    "ref:FR:RATP": "1809",
    "station": "subway",
    "type:RATP": "metro",
    "wheelchair": "no",
    "wikipedia": "fr:Louvre - Rivoli (métro de Paris)"
  }
},
{
  "type": "node",
  "id": 27371862,
  "lat": 48.8583398,
  "lon": 2.3467014,
  "tags": {
    "STIF:zone": "1",
    "name": "Châtelet",
    "name:ru": "Шатле",
    "operator": "RATP",
    "public_transport": "stop_position",
    "railway": "station",
    "ref:FR:RATP": "1964",
    "station": "subway",
    "subway": "yes",
    "type:RATP": "metro",
    "wheelchair": "no",
    "wikipedia": "fr:Châtelet (métro de Paris)"
  }
},
{
  "type": "node",
  "id": 27371864,
  "lat": 48.8572265,
  "lon": 2.3521708,
  "tags": {
    "STIF:zone": "1",
    "name": "Hôtel de Ville",
    "railway": "station",
    "ref:FR:RATP": "1855",
    "source": "cadastre-dgi-fr source : Direction Générale des Impôts - Cadastre. Mise à jour : 2010",
    "station": "subway",
    "type:RATP": "metro",
    "wheelchair": "no",
    "wikipedia": "fr:Hôtel de Ville (métro de Paris)"
  }
},
{
  "type": "node",
  "id": 27371867,
  "lat": 48.8552140,
  "lon": 2.3606657,
  "tags": {
    "STIF:zone": "1",
    "alt_name": "Saint-Paul (Le Marais)",
    "name": "Saint-Paul",
    "railway": "station",
    "ref:FR:RATP": "1695",
    "station": "subway",
    "type:RATP": "metro",
    "wheelchair": "no",
    "wikipedia": "fr:Saint-Paul (métro de Paris)"
  }
},
{
  "type": "node",
  "id": 27371876,
  "lat": 48.8520122,
  "lon": 2.3686542,
  "tags": {
    "STIF:zone": "1",
    "name": "Bastille",
    "railway": "station",
    "ref:FR:RATP": "2000",
    "station": "subway",
    "type:RATP": "metro",
    "wikipedia": "fr:Bastille (métro de Paris)"
  }
},
{
  "type": "node",
  "id": 27371889,
  "lat": 48.8457111,
  "lon": 2.3727163,
  "tags": {
    "STIF:zone": "1",
    "name": "Gare de Lyon (métro 1)",
    "railway": "station",
    "ref:FR:RATP": "1839",
    "station": "subway",
    "type:RATP": "metro",
    "wheelchair": "no",
    "wikipedia": "fr:Gare de Lyon (métro de Paris)"
  }
},
{
  "type": "node",
  "id": 27371892,
  "lat": 48.8472696,
  "lon": 2.3866995,
  "tags": {
    "STIF:zone": "1",
    "name": "Reuilly — Diderot",
    "name:ru": "Рёйи — Дидро",
    "railway": "station",
    "ref:FR:RATP": "1662",
    "station": "subway",
    "type:RATP": "metro",
    "wheelchair": "no",
    "wikipedia": "fr:Reuilly - Diderot (métro de Paris)"
  }
},
{
  "type": "node",
  "id": 27371900,
  "lat": 48.8475165,
  "lon": 2.4063260,
  "tags": {
    "STIF:zone": "1",
    "name": "Porte de Vincennes",
    "railway": "station",
    "ref:FR:RATP": "1733",
    "station": "subway",
    "type:RATP": "metro",
    "wikipedia": "fr:Porte de Vincennes (métro de Paris)"
  }
},
{
  "type": "node",
  "id": 27372996,
  "lat": 48.8287506,
  "lon": 2.2253263,
  "tags": {
    "STIF:zone": "3",
    "bench": "yes",
    "name": "Musée de Sèvres",
    "public_transport": "stop_position",
    "railway": "tram_stop",
    "ref:FR:RATP": "23876",
    "shelter": "yes",
    "tram": "yes",
    "type:RATP": "tram",
    "wheelchair": "yes",
    "wikipedia": "fr:Musée de Sèvres (tramway d'Île-de-France)"
  }
},
{
  "type": "node",
  "id": 27415776,
  "lat": 48.8779830,
  "lon": 2.2845160,
  "tags": {
    "SNCF:hackess:completeness": "4",
    "STIF:zone": "1",
    "name": "Neuilly - Porte Maillot",
    "note:fr": "RER C",
    "pictogram": "yes",
    "public_transport": "stop_position",
    "railway": "station",
    "ref:FR:RATP": "5643",
    "signage": "good",
    "type:RATP": "rer",
    "uic_ref": "87381020",
    "wheelchair": "yes",
    "wikipedia": "fr:Gare de Neuilly - Porte Maillot"
  }
},
{
  "type": "node",
  "id": 27507095,
  "lat": 48.8889510,
  "lon": 2.5129214,
  "tags": {
    "STIF:zone": "4",
    "name": "Le Raincy — Villemomble — Montfermeil",
    "railway": "station",
    "ref:FR:RATP": "51927",
    "type:RATP": "rer",
    "usage": "main",
    "wikipedia": "fr:Gare du Raincy - Villemomble - Montfermeil"
  }
},
{
  "type": "node",
  "id": 29588070,
  "lat": 48.8339081,
  "lon": 2.2438908,
  "tags": {
    "STIF:zone": "1",
    "name": "Marcel Sembat",
    "railway": "station",
    "ref:FR:RATP": "1829",
    "station": "subway",
    "type:RATP": "metro",
    "wikipedia": "fr:Marcel Sembat (métro de Paris)"
  }
},
{
  "type": "node",
  "id": 30738144,
  "lat": 48.8394108,
  "lon": 2.2709838,
  "tags": {
    "SNCF:hackess:completeness": "5",
    "STIF:zone": "1",
    "name": "Pont du Garigliano - Hôpital européen Georges-Pompidou",
    "official_name": "PONT DU GARIGLIANO - HÔPITAL EUROPEEN GEORGES POMPIDOU",
    "old_name": "Pont du Garigliano;Boulevard Victor",
    "opening_hours": "Mo-Su 00:00-00:30,04:00-24:00",
    "operator": "SNCF",
    "railway": "station",
    "ref": "RER C",
    "ref:FR:RATP": "5598",
    "ref:SNCF": "RER",
    "ref:SNCF:RER": "C",
    "type:RATP": "rer",
    "uic_ref": "8739332",
    "wheelchair": "yes",
    "wikipedia": "fr:Gare du Pont du Garigliano"
  }
},
{
  "type": "node",
  "id": 34909170,
  "lat": 48.8487832,
  "lon": 2.2988351,
  "tags": {
    "STIF:zone": "1",
    "name": "La Motte-Picquet - Grenelle",
    "railway": "station",
    "ref:FR:RATP": "1705;1874",
    "station": "subway",
    "type:RATP": "metro",
    "wheelchair": "limited",
    "wikipedia": "fr:La Motte-Picquet - Grenelle (métro de Paris)"
  }
},
{
  "type": "node",
  "id": 34909171,
  "lat": 48.8475338,
  "lon": 2.3029524,
  "tags": {
    "STIF:zone": "1",
    "name": "Cambronne",
    "railway": "station",
    "ref:FR:RATP": "1940",
    "station": "subway",
    "type:RATP": "metro",
    "wheelchair": "no",
    "wikipedia": "fr:Cambronne (métro de Paris)"
  }
},
{
  "type": "node",
  "id": 34909187,
  "lat": 48.8504212,
  "lon": 2.2936685,
  "tags": {
    "STIF:zone": "1",
    "name": "Dupleix",
    "railway": "station",
    "ref:FR:RATP": "1907",
    "station": "subway",
    "type:RATP": "metro",
    "wheelchair": "no",
    "wikipedia": "fr:Dupleix (métro de Paris)"
  }
},
{
  "type": "node",
  "id": 87360108,
  "lat": 48.8985657,
  "lon": 2.0950158,
  "tags": {
    "STIF:zone": "4",
    "name": "Saint-Germain-en-Laye",
    "operator": "RATP",
    "railway": "station",
    "ref:FR:RATP": "15522",
    "start_date": "1847-08-14",
    "type:RATP": "rer",
    "uic_ref": "8775809",
    "wheelchair": "yes",
    "wikipedia": "fr:Gare de Saint-Germain-en-Laye"
  }
},
{
  "type": "node",
  "id": 90674268,
  "lat": 48.9336959,
  "lon": 2.3075627,
  "tags": {
    "SNCF:hackess:completeness": "1",
    "STIF:zone": "3",
    "name": "Gennevilliers",
    "railway": "station",
    "ref:FR:RATP": "5578",
    "type:RATP": "rer",
    "uic_ref": "8727120",
    "wikipedia": "fr:Gare de Gennevilliers"
  }
},
{
  "type": "node",
  "id": 100295880,
  "lat": 48.7932705,
  "lon": 2.3215943,
  "tags": {
    "STIF:zone": "3",
    "name": "Bagneux",
    "operator": "RER",
    "railway": "station",
    "ref:FR:RATP": "1996",
    "type:RATP": "rer",
    "uic_ref": "8775868",
    "wheelchair": "yes",
    "wikipedia": "fr:Gare de Bagneux"
  }
},
{
  "type": "node",
  "id": 100295884,
  "lat": 48.7986051,
  "lon": 2.3281001,
  "tags": {
    "STIF:zone": "3",
    "name": "Arcueil-Cachan",
    "operator": "RER",
    "railway": "station",
    "ref:FR:RATP": "1985",
    "type:RATP": "rer",
    "uic_ref": "8775867",
    "wheelchair": "yes",
    "wikipedia": "fr:Gare d'Arcueil - Cachan"
  }
},
{
  "type": "node",
  "id": 117933709,
  "lat": 48.7076819,
  "lon": 2.2371490,
  "tags": {
    "STIF:zone": "4",
    "name": "Palaiseau Villebon",
    "railway": "station",
    "ref:FR:RATP": "1776",
    "type:RATP": "rer",
    "uic_ref": "8775881",
    "wheelchair": "yes",
    "wikipedia": "fr:Gare de Palaiseau - Villebon"
  }
},
{
  "type": "node",
  "id": 117933819,
  "lat": 48.7060013,
  "lon": 2.2116884,
  "tags": {
    "STIF:zone": "4",
    "name": "Lozère",
    "railway": "station",
    "ref:FR:RATP": "1810",
    "type:RATP": "rer",
    "uic_ref": "8775882",
    "wheelchair": "yes",
    "wikipedia": "fr:Gare de Lozère"
  }
},
{
  "type": "node",
  "id": 117982553,
  "lat": 48.6976144,
  "lon": 2.1817799,
  "tags": {
    "STIF:zone": "5",
    "name": "Orsay-Ville",
    "railway": "station",
    "ref:FR:RATP": "1772",
    "type:RATP": "rer",
    "uic_ref": "8775884",
    "wikipedia": "fr:Gare d'Orsay - Ville"
  }
},
{
  "type": "node",
  "id": 117982574,
  "lat": 48.6956720,
  "lon": 2.1631260,
  "tags": {
    "STIF:zone": "5",
    "name": "Bures-sur-Yvette",
    "railway": "station",
    "ref:FR:RATP": "1934",
    "type:RATP": "rer",
    "uic_ref": "8775885",
    "wheelchair": "yes",
    "wikipedia": "fr:Gare de Bures-sur-Yvette"
  }
},
{
  "type": "node",
  "id": 117982604,
  "lat": 48.6981859,
  "lon": 2.1367431,
  "tags": {
    "STIF:zone": "5",
    "name": "Gif-sur-Yvette",
    "railway": "station",
    "ref:FR:RATP": "1847",
    "type:RATP": "rer",
    "uic_ref": "8775887",
    "wheelchair": "yes",
    "wikipedia": "fr:Gare de Gif-sur-Yvette"
  }
},
{
  "type": "node",
  "id": 117982636,
  "lat": 48.7008969,
  "lon": 2.0990597,
  "tags": {
    "STIF:zone": "5",
    "name": "Courcelle-sur-Yvette",
    "railway": "station",
    "ref:FR:RATP": "1891",
    "type:RATP": "rer",
    "uic_ref": "8775888",
    "wheelchair": "yes",
    "wikipedia": "fr:Gare de Courcelle-sur-Yvette"
  }
},
{
  "type": "node",
  "id": 132258390,
  "lat": 48.9475630,
  "lon": 2.5246969,
  "tags": {
    "STIF:zone": "4",
    "name": "Sevran - Beaudottes",
    "railway": "station",
    "ref:FR:RATP": "1703",
    "type:RATP": "rer",
    "uic_ref": "8727144",
    "wikipedia": "fr:Gare de Sevran - Beaudottes"
  }
},
{
  "type": "node",
  "id": 134299001,
  "lat": 48.8242325,
  "lon": 2.2730847,
  "tags": {
    "STIF:zone": "1",
    "name": "Mairie d'Issy",
    "name:ru": "Мэри-д’Исси",
    "railway": "station",
    "ref:FR:RATP": "1814;2803",
    "station": "subway",
    "type:RATP": "metro",
    "wheelchair": "no",
    "wikipedia": "fr:Mairie d'Issy (métro de Paris)"
  }
},
{
  "type": "node",
  "id": 134299013,
  "lat": 48.8270162,
  "lon": 2.2794048,
  "tags": {
    "STIF:zone": "1",
    "name": "Corentin Celton",
    "name:ru": "Корентен Селтон",
    "railway": "station",
    "ref:FR:RATP": "1889;2802",
    "station": "subway",
    "type:RATP": "metro",
    "wheelchair": "no",
    "wikipedia": "fr:Corentin Celton (métro de Paris)"
  }
},
{
  "type": "node",
  "id": 134305192,
  "lat": 48.8326135,
  "lon": 2.2884024,
  "tags": {
    "STIF:zone": "1",
    "name": "Porte de Versailles",
    "name:ru": "Порт-де-Версай",
    "railway": "station",
    "ref:FR:RATP": "1732;1606",
    "station": "subway",
    "type:RATP": "metro",
    "wheelchair": "no",
    "wikipedia": "fr:Porte de Versailles (métro de Paris)"
  }
},
{
  "type": "node",
  "id": 134305198,
  "lat": 48.8373212,
  "lon": 2.2966299,
  "tags": {
    "STIF:zone": "1",
    "name": "Convention",
    "name:ru": "Конвансьон",
    "railway": "station",
    "ref:FR:RATP": "1887;1605",
    "station": "subway",
    "type:RATP": "metro",
    "wheelchair": "no",
    "wikipedia": "fr:Convention (métro de Paris)"
  }
},
{
  "type": "node",
  "id": 137533248,
  "lat": 48.8919670,
  "lon": 2.2377696,
  "tags": {
    "STIF:zone": "1",
    "name": "La Défense - Grande Arche",
    "railway": "station",
    "ref:FR:RATP": "1850",
    "station": "subway",
    "type:RATP": "metro",
    "wheelchair": "yes",
    "wikipedia": "fr:La Défense (métro de Paris)"
  }
},
{
  "type": "node",
  "id": 152529245,
  "lat": 48.7049598,
  "lon": 2.1917229,
  "tags": {
    "STIF:zone": "5",
    "name": "Le Guichet",
    "railway": "station",
    "ref:FR:RATP": "1884",
    "type:RATP": "rer",
    "uic_ref": "8775883",
    "wheelchair": "yes",
    "wikipedia": "fr:Gare du Guichet"
  }
},
{
  "type": "node",
  "id": 154788912,
  "lat": 48.8628286,
  "lon": 2.3139670,
  "tags": {
    "SNCF:hackess:completeness": "5",
    "STIF:zone": "1",
    "name": "Invalides",
    "name:fr": "Invalides",
    "name:ru": "Энвалид",
    "operator": "SNCF",
    "public_transport": "stop_position",
    "railway": "station",
    "ref:FR:RATP": "5602",
    "type:RATP": "rer",
    "uic_ref": "8739303",
    "wheelchair": "yes",
    "wikipedia": "fr:Gare des Invalides"
  }
},
{
  "type": "node",
  "id": 154788920,
  "lat": 48.8568600,
  "lon": 2.2898539,
  "tags": {
    "SNCF:hackess:completeness": "5",
    "STIF:zone": "1",
    "name": "Champ de Mars - Tour Eiffel",
    "name:de": "Marsfeld - Eiffelturm",
    "official_name": "CHAMP DE MARS",
    "operator": "SNCF",
    "public_transport": "stop_position",
    "railway": "station",
    "ref": "RER C",
    "ref:FR:RATP": "5600",
    "ref:SNCF": "RER",
    "ref:SNCF:RER": "C",
    "type:RATP": "rer",
    "uic_ref": "8739305",
    "wheelchair": "limited",
    "wikipedia": "fr:Gare du Champ de Mars - Tour Eiffel"
  }
},
{
  "type": "node",
  "id": 166004531,
  "lat": 48.7876464,
  "lon": 2.2922284,
  "tags": {
    "STIF:zone": "3",
    "name": "Fontenay-aux-Roses",
    "railway": "station",
    "ref:FR:RATP": "1921",
    "type:RATP": "rer",
    "uic_ref": "8775871",
    "wheelchair": "yes",
    "wikipedia": "fr:Gare de Fontenay-aux-Roses"
  }
},
{
  "type": "node",
  "id": 166004551,
  "lat": 48.7814620,
  "lon": 2.2974368,
  "tags": {
    "STIF:zone": "3",
    "name": "Sceaux",
    "railway": "station",
    "ref:FR:RATP": "1701",
    "type:RATP": "rer",
    "uic_ref": "8775870",
    "wheelchair": "yes",
    "wikipedia": "fr:Gare de Sceaux"
  }
},
{
  "type": "node",
  "id": 195306171,
  "lat": 48.8446359,
  "lon": 2.5261501,
  "tags": {
    "STIF:zone": "4",
    "name": "Bry-sur-Marne",
    "railway": "station",
    "ref:FR:RATP": "1932",
    "type:RATP": "rer",
    "uic_ref": "8775832",
    "wheelchair": "yes",
    "wikipedia": "fr:Gare de Bry-sur-Marne"
  }
},
{
  "type": "node",
  "id": 195306266,
  "lat": 48.8427731,
  "lon": 2.5790492,
  "tags": {
    "STIF:zone": "4",
    "name": "Noisy-Champs - Champy-Nesles",
    "railway": "station",
    "ref:FR:RATP": "1765",
    "type:RATP": "rer",
    "uic_ref": "8775834",
    "wheelchair": "yes",
    "wikipedia": "fr:Gare de Noisy - Champs"
  }
},
{
  "type": "node",
  "id": 198022375,
  "lat": 49.0323514,
  "lon": 2.4765282,
  "tags": {
    "STIF:zone": "5",
    "name": "Les Noues",
    "official_name": "LES NOUES",
    "operator": "SNCF",
    "railway": "station",
    "ref:FR:RATP": "5565",
    "route_ref:FR:RER_D": "LOVA; LUCA; SUCA; LOPA; SOVA",
    "type:RATP": "rer",
    "uic_ref": "8727623",
    "wikipedia": "fr:Gare des Noues"
  }
},
{
  "type": "node",
  "id": 201840383,
  "lat": 48.7395933,
  "lon": 2.2874140,
  "tags": {
    "STIF:zone": "4",
    "name": "Les Baconnets",
    "railway": "station",
    "ref:FR:RATP": "1799",
    "type:RATP": "rer",
    "uic_ref": "8775877",
    "wheelchair": "yes",
    "wikipedia": "fr:Gare des Baconnets"
  }
},
{
  "type": "node",
  "id": 210545408,
  "lat": 48.8191867,
  "lon": 2.2391994,
  "tags": {
    "STIF:zone": "3",
    "name": "Meudon-sur-Seine",
    "railway": "tram_stop",
    "ref:FR:RATP": "23878",
    "type:RATP": "tram",
    "wheelchair": "yes",
    "wikipedia": "fr:Meudon-sur-Seine (tramway d'Île-de-France)"
  }
},
{
  "type": "node",
  "id": 220289379,
  "lat": 48.8228800,
  "lon": 2.3256282,
  "tags": {
    "STIF:zone": "1",
    "alt_name": "Porte d'Orléans (Général Leclerc)",
    "name": "Porte d'Orléans",
    "operator": "RATP",
    "public_transport": "stop_position",
    "railway": "station",
    "ref:FR:RATP": "1720",
    "station": "subway",
    "subway": "yes",
    "type:RATP": "metro",
    "wheelchair": "no",
    "wikipedia": "fr:Porte d'Orléans (métro de Paris)"
  }
},
{
  "type": "node",
  "id": 220289382,
  "lat": 48.8280605,
  "lon": 2.3269249,
  "tags": {
    "STIF:zone": "1",
    "name": "Alésia",
    "operator": "RATP",
    "public_transport": "stop_position",
    "railway": "station",
    "ref:FR:RATP": "1981",
    "station": "subway",
    "subway": "yes",
    "type:RATP": "metro",
    "wheelchair": "no",
    "wikipedia": "fr:Alésia (métro de Paris)"
  }
},
{
  "type": "node",
  "id": 220289385,
  "lat": 48.8313954,
  "lon": 2.3301258,
  "tags": {
    "STIF:zone": "1",
    "heritage:operator": "mhs",
    "mhs:inscription_date": "1978",
    "name": "Mouton-Duvernet",
    "operator": "RATP",
    "public_transport": "stop_position",
    "railway": "station",
    "ref:FR:RATP": "1753",
    "ref:mhs": "PA00086631",
    "station": "subway",
    "subway": "yes",
    "type:RATP": "metro",
    "wheelchair": "no",
    "wikipedia": "fr:Mouton-Duvernet (métro de Paris)"
  }
},
{
  "type": "node",
  "id": 220289387,
  "lat": 48.8340204,
  "lon": 2.3325902,
  "tags": {
    "STIF:zone": "1",
    "name": "Denfert-Rochereau",
    "operator": "RATP",
    "public_transport": "stop_position",
    "railway": "station",
    "ref:FR:RATP": "1902",
    "station": "subway",
    "subway": "yes",
    "type:RATP": "metro",
    "wheelchair": "limited",
    "wikipedia": "fr:Denfert-Rochereau (métro de Paris)"
  }
},
{
  "type": "node",
  "id": 220289389,
  "lat": 48.8389018,
  "lon": 2.3308032,
  "tags": {
    "STIF:zone": "1",
    "name": "Raspail",
    "operator": "RATP",
    "public_transport": "stop_position",
    "railway": "station",
    "ref:FR:RATP": "1660",
    "station": "subway",
    "subway": "yes",
    "type:RATP": "metro",
    "wikipedia": "fr:Raspail (métro de Paris)"
  }
},
{
  "type": "node",
  "id": 225119903,
  "lat": 49.0097687,
  "lon": 2.5612836,
  "tags": {
    "STIF:zone": "5",
    "name": "Aéroport Charles de Gaulle 1",
    "railway": "station",
    "ref:FR:RATP": "1669",
    "type:RATP": "rer",
    "uic_ref": "8727146",
    "wikipedia": "fr:Gare Aéroport Charles-de-Gaulle 1"
  }
},
{
  "type": "node",
  "id": 225120628,
  "lat": 49.0035382,
  "lon": 2.5707761,
  "tags": {
    "STIF:zone": "5",
    "name": "Aéroport Charles-de-Gaulle 2 TGV",
    "name:pl": "Dworzec kolejowy Aéroport Charles-de-Gaulle 2 TGV",
    "railway": "station",
    "ref:FR:RATP": "16815",
    "type:RATP": "rer",
    "uic_ref": "8727149",
    "wheelchair": "yes",
    "wikipedia": "fr:Gare Aéroport Charles-de-Gaulle 2 TGV"
  }
},
{
  "type": "node",
  "id": 231286269,
  "lat": 48.8851789,
  "lon": 2.1562111,
  "tags": {
    "STIF:zone": "4",
    "is_in": "Chatou",
    "name": "Chatou - Croissy",
    "railway": "station",
    "ref:FR:RATP": "1956",
    "start_date": "1837-08-26",
    "type:RATP": "rer",
    "uic_ref": "8775806",
    "wikipedia": "fr:Gare de Chatou - Croissy"
  }
},
{
  "type": "node",
  "id": 235369898,
  "lat": 48.8330168,
  "lon": 2.3366295,
  "tags": {
    "STIF:zone": "1",
    "name": "Saint-Jacques",
    "railway": "station",
    "ref:FR:RATP": "1688",
    "station": "subway",
    "type:RATP": "metro",
    "wheelchair": "no",
    "wikipedia": "fr:Saint-Jacques (métro de Paris)"
  }
},
{
  "type": "node",
  "id": 235370184,
  "lat": 48.8311288,
  "lon": 2.3434842,
  "tags": {
    "STIF:zone": "1",
    "name": "Glacière",
    "railway": "station",
    "ref:FR:RATP": "1848",
    "station": "subway",
    "type:RATP": "metro",
    "wheelchair": "no",
    "wikipedia": "fr:Glacière (métro de Paris)"
  }
},
{
  "type": "node",
  "id": 235370505,
  "lat": 48.8297785,
  "lon": 2.3504704,
  "tags": {
    "STIF:zone": "1",
    "name": "Corvisart",
    "railway": "station",
    "ref:FR:RATP": "1890",
    "station": "subway",
    "type:RATP": "metro",
    "wheelchair": "no",
    "wikipedia": "fr:Corvisart (métro de Paris)"
  }
},
{
  "type": "node",
  "id": 235371392,
  "lat": 48.8314217,
  "lon": 2.3555589,
  "tags": {
    "STIF:zone": "1",
    "name": "Place d'Italie",
    "name:es": "Plaza de Italia",
    "name:ru": "Пляс д’Итали",
    "railway": "station",
    "ref:FR:RATP": "1789",
    "station": "subway",
    "type:RATP": "metro",
    "uic_ref": "8705548",
    "wheelchair": "no",
    "wikipedia": "fr:Place d'Italie (métro de Paris)"
  }
},
{
  "type": "node",
  "id": 235371394,
  "lat": 48.8331986,
  "lon": 2.3628553,
  "tags": {
    "STIF:zone": "1",
    "name": "Nationale",
    "railway": "station",
    "ref:FR:RATP": "1761",
    "station": "subway",
    "type:RATP": "metro",
    "wheelchair": "no",
    "wikipedia": "fr:Nationale (métro de Paris)"
  }
},
{
  "type": "node",
  "id": 235371395,
  "lat": 48.8349549,
  "lon": 2.3680817,
  "tags": {
    "STIF:zone": "1",
    "name": "Chevaleret",
    "railway": "station",
    "ref:FR:RATP": "1959",
    "station": "subway",
    "type:RATP": "metro",
    "wheelchair": "no",
    "wikipedia": "fr:Chevaleret (métro de Paris)"
  }
},
{
  "type": "node",
  "id": 235374383,
  "lat": 48.8370762,
  "lon": 2.3729066,
  "tags": {
    "STIF:zone": "1",
    "name": "Quai de la Gare",
    "railway": "station",
    "ref:FR:RATP": "1742",
    "station": "subway",
    "type:RATP": "metro",
    "wheelchair": "no",
    "wikipedia": "fr:Quai de la Gare (métro de Paris)"
  }
},
{
  "type": "node",
  "id": 235377792,
  "lat": 48.8842870,
  "lon": 2.3659442,
  "tags": {
    "STIF:zone": "1",
    "name": "Stalingrad",
    "name:ru": "Сталинград",
    "railway": "station",
    "ref:FR:RATP": "1627",
    "station": "subway",
    "type:RATP": "metro",
    "wheelchair": "yes",
    "wikipedia": "fr:Stalingrad (métro de Paris)"
  }
},
{
  "type": "node",
  "id": 237931210,
  "lat": 48.7956697,
  "lon": 2.6503883,
  "tags": {
    "STIF:zone": "5",
    "name": "Roissy-en-Brie",
    "railway": "station",
    "ref:FR:RATP": "58000",
    "type:RATP": "rer",
    "usage": "main",
    "wikipedia": "fr:Gare de Roissy-en-Brie"
  }
},
{
  "type": "node",
  "id": 237931216,
  "lat": 48.8061102,
  "lon": 2.6184322,
  "tags": {
    "STIF:zone": "5",
    "name": "Émerainville — Pontault-Combault",
    "railway": "station",
    "ref:FR:RATP": "57999",
    "type:RATP": "rer",
    "usage": "main",
    "wikipedia": "fr:Gare d'Émerainville - Pontault-Combault"
  }
},
{
  "type": "node",
  "id": 237931246,
  "lat": 48.8230136,
  "lon": 2.5801235,
  "tags": {
    "STIF:zone": "4",
    "name": "Les Yvris Noisy-le-Grand",
    "railway": "station",
    "ref:FR:RATP": "57998",
    "type:RATP": "rer",
    "usage": "main",
    "wikipedia": "fr:Gare des Yvris - Noisy-le-Grand"
  }
},
{
  "type": "node",
  "id": 237931296,
  "lat": 48.8248565,
  "lon": 2.5118850,
  "tags": {
    "STIF:zone": "3",
    "name": "Les Boullereaux - Champigny",
    "railway": "station",
    "ref:FR:RATP": "51934",
    "type:RATP": "rer",
    "usage": "main",
    "wikipedia": "fr:Gare des Boullereaux - Champigny"
  }
},
{
  "type": "node",
  "id": 239822735,
  "lat": 48.8407958,
  "lon": 2.5477591,
  "tags": {
    "STIF:zone": "4",
    "name": "Noisy-le-Grand — Mont d’Est",
    "railway": "station",
    "ref:FR:RATP": "1766",
    "type:RATP": "rer",
    "uic_ref": "8775833",
    "wheelchair": "yes",
    "wikipedia": "fr:Gare de Noisy-le-Grand - Mont d'Est"
  }
},
{
  "type": "node",
  "id": 241926523,
  "lat": 48.8697839,
  "lon": 2.7822973,
  "tags": {
    "STIF:zone": "5",
    "name": "Marne-la-Vallée Chessy - Parc Disneyland (RER)",
    "operator": "RATP",
    "railway": "station",
    "ref:FR:RATP": "1830",
    "type:RATP": "rer",
    "uic_ref": "8775499",
    "wheelchair": "yes",
    "wikipedia": "fr:Gare de Marne-la-Vallée - Chessy"
  }
},
{
  "type": "node",
  "id": 241928557,
  "lat": 48.8480576,
  "lon": 2.3960523,
  "tags": {
    "STIF:zone": "1",
    "name": "Nation",
    "railway": "station",
    "ref:FR:RATP": "1758",
    "station": "subway",
    "type:RATP": "metro",
    "wheelchair": "no",
    "wikipedia": "fr:Nation (métro de Paris)"
  }
},
{
  "type": "node",
  "id": 241928757,
  "lat": 48.8444696,
  "lon": 2.4398829,
  "tags": {
    "STIF:zone": "1",
    "name": "Château de Vincennes",
    "railway": "station",
    "ref:FR:RATP": "1962",
    "station": "subway",
    "type:RATP": "metro",
    "wikipedia": "fr:Château de Vincennes (métro de Paris)"
  }
},
{
  "type": "node",
  "id": 241928758,
  "lat": 48.8454354,
  "lon": 2.4293269,
  "tags": {
    "STIF:zone": "1",
    "name": "Bérault",
    "railway": "station",
    "ref:FR:RATP": "1938",
    "station": "subway",
    "type:RATP": "metro",
    "wikipedia": "fr:Bérault (métro de Paris)"
  }
},
{
  "type": "node",
  "id": 241929128,
  "lat": 48.8437078,
  "lon": 2.4637379,
  "tags": {
    "STIF:zone": "3",
    "name": "Fontenay-sous-Bois",
    "operator": "RATP",
    "platforms": "2",
    "public_transport": "stop_position",
    "rail": "yes",
    "railway": "station",
    "ref:FR:RATP": "1922",
    "start_date": "1969-12-14",
    "type:RATP": "rer",
    "uic_ref": "8775812",
    "wheelchair": "yes",
    "wikipedia": "fr:Gare de Fontenay-sous-Bois"
  }
},
{
  "type": "node",
  "id": 242335017,
  "lat": 48.7525892,
  "lon": 2.5047511,
  "tags": {
    "STIF:zone": "4",
    "name": "Boissy-Saint-Léger",
    "operator": "RATP",
    "public_transport": "stop_position",
    "rail": "yes",
    "ref:FR:RATP": "2013",
    "start_date": "1874-07-09",
    "type:RATP": "rer",
    "uic_ref": "8775820",
    "wikipedia": "fr:Gare de Boissy-Saint-Léger"
  }
},
{
  "type": "node",
  "id": 243050068,
  "lat": 48.8703405,
  "lon": 2.4858470,
  "tags": {
    "STIF:zone": "3",
    "name": "Rosny-sous-Bois",
    "railway": "station",
    "ref:FR:RATP": "51932",
    "type:RATP": "rer",
    "usage": "main",
    "wikipedia": "fr:Gare de Rosny-sous-Bois"
  }
},
{
  "type": "node",
  "id": 243050251,
  "lat": 48.8825092,
  "lon": 2.4812324,
  "tags": {
    "STIF:zone": "3",
    "name": "Rosny - Bois-Perrier",
    "railway": "station",
    "ref:FR:RATP": "51931",
    "type:RATP": "rer",
    "usage": "main",
    "wikipedia": "fr:Gare de Rosny - Bois-Perrier"
  }
},
{
  "type": "node",
  "id": 243357000,
  "lat": 48.8782117,
  "lon": 2.3816608,
  "tags": {
    "STIF:zone": "1",
    "name": "Buttes Chaumont",
    "public_transport": "stop_position",
    "railway": "station",
    "ref:FR:RATP": "1936",
    "station": "subway",
    "subway": "yes",
    "type:RATP": "metro",
    "wheelchair": "no",
    "wikipedia": "fr:Buttes Chaumont (métro de Paris)"
  }
},
{
  "type": "node",
  "id": 243358029,
  "lat": 48.8808997,
  "lon": 2.3738860,
  "tags": {
    "STIF:zone": "1",
    "name": "Bolivar",
    "public_transport": "stop_position",
    "railway": "station",
    "ref:FR:RATP": "2014",
    "station": "subway",
    "subway": "yes",
    "type:RATP": "metro",
    "wikipedia": "fr:Bolivar (métro de Paris)"
  }
},
{
  "type": "node",
  "id": 243486950,
  "lat": 48.8518166,
  "lon": 2.4013757,
  "tags": {
    "STIF:zone": "1",
    "name": "Buzenval",
    "railway": "station",
    "ref:FR:RATP": "1937",
    "station": "subway",
    "type:RATP": "metro",
    "wikipedia": "fr:Buzenval (métro de Paris)"
  }
},
{
  "type": "node",
  "id": 243487863,
  "lat": 48.8463309,
  "lon": 2.4190317,
  "tags": {
    "STIF:zone": "1",
    "name": "Saint-Mandé",
    "railway": "station",
    "ref:FR:RATP": "1690",
    "station": "subway",
    "type:RATP": "metro",
    "wikipedia": "fr:Saint-Mandé (métro de Paris)"
  }
},
{
  "type": "node",
  "id": 243489718,
  "lat": 48.8514805,
  "lon": 2.3982271,
  "tags": {
    "STIF:zone": "1",
    "name": "Avron",
    "railway": "station",
    "ref:FR:RATP": "1995",
    "station": "subway",
    "type:RATP": "metro",
    "wikipedia": "fr:Avron (métro de Paris)"
  }
},
{
  "type": "node",
  "id": 243490761,
  "lat": 48.8664900,
  "lon": 2.3833323,
  "tags": {
    "STIF:zone": "1",
    "name": "Ménilmontant",
    "railway": "station",
    "ref:FR:RATP": "1754",
    "station": "subway",
    "type:RATP": "metro",
    "wheelchair": "no",
    "wikipedia": "fr:Ménilmontant (métro de Paris)"
  }
},
{
  "type": "node",
  "id": 243490762,
  "lat": 48.8629761,
  "lon": 2.3873271,
  "tags": {
    "STIF:zone": "1",
    "name": "Père Lachaise",
    "name:ru": "Пер-Лашез",
    "railway": "station",
    "ref:FR:RATP": "1741",
    "station": "subway",
    "type:RATP": "metro",
    "wikipedia": "fr:Père Lachaise (métro de Paris)"
  }
},
{
  "type": "node",
  "id": 243490763,
  "lat": 48.8582563,
  "lon": 2.3901666,
  "tags": {
    "STIF:zone": "1",
    "name": "Philippe Auguste",
    "railway": "station",
    "ref:FR:RATP": "1784",
    "station": "subway",
    "type:RATP": "metro",
    "wheelchair": "no",
    "wikipedia": "fr:Philippe Auguste (métro de Paris)"
  }
},
{
  "type": "node",
  "id": 243490764,
  "lat": 48.8562640,
  "lon": 2.3945621,
  "tags": {
    "STIF:zone": "1",
    "name": "Alexandre Dumas",
    "railway": "station",
    "ref:FR:RATP": "1978",
    "station": "subway",
    "type:RATP": "metro",
    "wheelchair": "no",
    "wikipedia": "fr:Alexandre Dumas (métro de Paris)"
  }
},
{
  "type": "node",
  "id": 243493845,
  "lat": 48.8720463,
  "lon": 2.3769849,
  "tags": {
    "STIF:zone": "1",
    "name": "Belleville",
    "public_transport": "stop_position",
    "railway": "station",
    "ref:FR:RATP": "2004",
    "station": "subway",
    "subway": "yes",
    "type:RATP": "metro",
    "wheelchair": "no",
    "wikipedia": "fr:Belleville (métro de Paris)"
  }
},
{
  "type": "node",
  "id": 243493846,
  "lat": 48.8690586,
  "lon": 2.3804560,
  "tags": {
    "STIF:zone": "1",
    "name": "Couronnes",
    "railway": "station",
    "ref:FR:RATP": "1893",
    "station": "subway",
    "type:RATP": "metro",
    "wikipedia": "fr:Couronnes (métro de Paris)"
  }
},
{
  "type": "node",
  "id": 243493916,
  "lat": 48.8774398,
  "lon": 2.3708174,
  "tags": {
    "STIF:zone": "1",
    "name": "Colonel Fabien",
    "railway": "station",
    "ref:FR:RATP": "1972",
    "station": "subway",
    "type:RATP": "metro",
    "wikipedia": "fr:Colonel Fabien (métro de Paris)"
  }
},
{
  "type": "node",
  "id": 243494998,
  "lat": 48.8829026,
  "lon": 2.3443344,
  "tags": {
    "STIF:zone": "1",
    "name": "Anvers",
    "railway": "station",
    "ref:FR:RATP": "1984",
    "station": "subway",
    "type:RATP": "metro",
    "wheelchair": "no",
    "wikipedia": "fr:Anvers (métro de Paris)"
  }
},
{
  "type": "node",
  "id": 243496024,
  "lat": 48.8823612,
  "lon": 2.3373703,
  "tags": {
    "STIF:zone": "1",
    "name": "Pigalle",
    "name:ru": "Пигаль",
    "railway": "station",
    "ref:FR:RATP": "1787",
    "station": "subway",
    "type:RATP": "metro",
    "wheelchair": "no",
    "wikipedia": "fr:Pigalle (métro de Paris)"
  }
},
{
  "type": "node",
  "id": 243496025,
  "lat": 48.8836162,
  "lon": 2.3330841,
  "tags": {
    "STIF:zone": "1",
    "name": "Blanche",
    "railway": "station",
    "ref:FR:RATP": "2009",
    "station": "subway",
    "type:RATP": "metro",
    "wikipedia": "fr:Blanche (métro de Paris)"
  }
},
{
  "type": "node",
  "id": 243496027,
  "lat": 48.8835165,
  "lon": 2.3274515,
  "tags": {
    "STIF:zone": "1",
    "name": "Place de Clichy",
    "name:ru": "Пляс-де-Клиши",
    "railway": "station",
    "ref:FR:RATP": "1790",
    "station": "subway",
    "type:RATP": "metro",
    "wheelchair": "no",
    "wikipedia": "fr:Place de Clichy (métro de Paris)"
  }
},
{
  "type": "node",
  "id": 243496028,
  "lat": 48.8824462,
  "lon": 2.3221220,
  "tags": {
    "STIF:zone": "1",
    "name": "Rome",
    "railway": "station",
    "ref:FR:RATP": "1670",
    "station": "subway",
    "type:RATP": "metro",
    "wheelchair": "no",
    "wikipedia": "fr:Rome (métro de Paris)"
  }
},
{
  "type": "node",
  "id": 243496029,
  "lat": 48.8812626,
  "lon": 2.3155318,
  "tags": {
    "STIF:zone": "1",
    "name": "Villiers",
    "name:ru": "Вилье",
    "railway": "station",
    "ref:FR:RATP": "1654",
    "station": "subway",
    "type:RATP": "metro",
    "wheelchair": "no",
    "wikipedia": "fr:Villiers (métro de Paris)"
  }
},
{
  "type": "node",
  "id": 243496030,
  "lat": 48.8805420,
  "lon": 2.3094230,
  "tags": {
    "STIF:zone": "1",
    "name": "Monceau",
    "railway": "station",
    "ref:FR:RATP": "1749",
    "station": "subway",
    "type:RATP": "metro",
    "wheelchair": "no",
    "wikipedia": "fr:Monceau (métro de Paris)"
  }
},
{
  "type": "node",
  "id": 243496033,
  "lat": 48.8736024,
  "lon": 2.2956935,
  "tags": {
    "STIF:zone": "1",
    "name": "Charles de Gaulle — Étoile (metro)",
    "name:ru": "Шарль де Голль — Этуаль",
    "railway": "station",
    "ref:FR:RATP": "1953",
    "station": "subway",
    "type:RATP": "metro",
    "wheelchair": "limited",
    "wikipedia": "fr:Charles de Gaulle - Étoile (métro de Paris)"
  }
},
{
  "type": "node",
  "id": 243496728,
  "lat": 48.8698038,
  "lon": 2.2854485,
  "tags": {
    "STIF:zone": "1",
    "name": "Victor Hugo",
    "name:ru": "Виктор Гюго",
    "railway": "station",
    "ref:FR:RATP": "1648",
    "station": "subway",
    "type:RATP": "metro",
    "wheelchair": "no",
    "wikipedia": "fr:Victor Hugo (métro de Paris)"
  }
},
{
  "type": "node",
  "id": 243496729,
  "lat": 48.8714638,
  "lon": 2.2768954,
  "tags": {
    "STIF:zone": "1",
    "alt_name": "Porte Dauphine (Maréchal de Lattre de Tassigny)",
    "name": "Porte Dauphine",
    "name:ru": "Порт-Дофин",
    "railway": "station",
    "ref:FR:RATP": "1714",
    "station": "subway",
    "type:RATP": "metro",
    "wheelchair": "no",
    "wikipedia": "fr:Porte Dauphine (métro de Paris)"
  }
},
{
  "type": "node",
  "id": 243507233,
  "lat": 48.8652545,
  "lon": 2.4166605,
  "tags": {
    "STIF:zone": "1",
    "alt_name": "Gallieni (Parc de Bagnolet)",
    "name": "Gallieni",
    "name:ru": "Гальени",
    "public_transport": "stop_position",
    "railway": "station",
    "ref:FR:RATP": "1928",
    "station": "subway",
    "subway": "yes",
    "type:RATP": "metro",
    "wikipedia": "fr:Gallieni (métro de Paris)"
  }
},
{
  "type": "node",
  "id": 243507234,
  "lat": 48.8645515,
  "lon": 2.4088118,
  "tags": {
    "STIF:zone": "1",
    "name": "Porte de Bagnolet",
    "name:ru": "Порт-де-Баньоле",
    "public_transport": "stop_position",
    "railway": "station",
    "ref:FR:RATP": "1721",
    "station": "subway",
    "subway": "yes",
    "type:RATP": "metro",
    "wikipedia": "fr:Porte de Bagnolet (métro de Paris)"
  }
},
{
  "type": "node",
  "id": 243507235,
  "lat": 48.8649326,
  "lon": 2.3984802,
  "tags": {
    "STIF:zone": "1",
    "name": "Gambetta",
    "name:ru": "Гамбетта",
    "public_transport": "stop_position",
    "railway": "station",
    "ref:FR:RATP": "1929",
    "station": "subway",
    "subway": "yes",
    "type:RATP": "metro",
    "wheelchair": "no",
    "wikipedia": "fr:Gambetta (métro de Paris)"
  }
},
{
  "type": "node",
  "id": 243507789,
  "lat": 48.8643020,
  "lon": 2.3794597,
  "tags": {
    "STIF:zone": "1",
    "name": "Rue Saint-Maur",
    "name:ru": "Рю-Сен-Мор",
    "railway": "station",
    "ref:FR:RATP": "1693",
    "station": "subway",
    "type:RATP": "metro",
    "wheelchair": "no",
    "wikipedia": "fr:Rue Saint-Maur (métro de Paris)"
  }
},
{
  "type": "node",
  "id": 243507790,
  "lat": 48.8652193,
  "lon": 2.3747542,
  "tags": {
    "STIF:zone": "1",
    "name": "Parmentier",
    "name:ru": "Пармантье",
    "railway": "station",
    "ref:FR:RATP": "1779",
    "station": "subway",
    "type:RATP": "metro",
    "wheelchair": "no",
    "wikipedia": "fr:Parmentier (métro de Paris)"
  }
},
{
  "type": "node",
  "id": 243507791,
  "lat": 48.8675846,
  "lon": 2.3641177,
  "tags": {
    "STIF:zone": "1",
    "name": "République",
    "name:fr": "République",
    "name:ru": "Репюблик",
    "railway": "station",
    "ref:FR:RATP": "1679",
    "station": "subway",
    "type:RATP": "metro",
    "wikipedia": "fr:République (métro de Paris)"
  }
},
{
  "type": "node",
  "id": 243507792,
  "lat": 48.8666345,
  "lon": 2.3614233,
  "tags": {
    "STIF:zone": "1",
    "name": "Temple",
    "name:fr": "Temple",
    "name:ru": "Тампль",
    "railway": "station",
    "ref:FR:RATP": "1634",
    "station": "subway",
    "type:RATP": "metro",
    "wheelchair": "no",
    "wikipedia": "fr:Temple (métro de Paris)"
  }
},
{
  "type": "node",
  "id": 243507793,
  "lat": 48.8654878,
  "lon": 2.3563464,
  "tags": {
    "STIF:zone": "1",
    "name": "Arts et Métiers",
    "name:ru": "Ар-э-Метье",
    "operator": "RATP",
    "railway": "station",
    "ref:FR:RATP": "1988",
    "station": "subway",
    "type:RATP": "metro",
    "wheelchair": "no",
    "wikipedia": "fr:Arts et Métiers (métro de Paris)"
  }
},
{
  "type": "node",
  "id": 243507794,
  "lat": 48.8663020,
  "lon": 2.3524557,
  "tags": {
    "STIF:zone": "1",
    "name": "Réaumur - Sébastopol",
    "name:ru": "Реомюр — Себастополь",
    "operator": "RATP",
    "public_transport": "stop_position",
    "railway": "station",
    "ref:FR:RATP": "1676",
    "station": "subway",
    "subway": "yes",
    "type:RATP": "metro",
    "wheelchair": "no",
    "wikipedia": "fr:Réaumur - Sébastopol (métro de Paris)"
  }
},
{
  "type": "node",
  "id": 243507795,
  "lat": 48.8676419,
  "lon": 2.3463248,
  "tags": {
    "STIF:zone": "1",
    "name": "Sentier",
    "name:ru": "Сантье",
    "railway": "station",
    "ref:FR:RATP": "1702",
    "station": "subway",
    "type:RATP": "metro",
    "wikipedia": "fr:Sentier (métro de Paris)"
  }
},
{
  "type": "node",
  "id": 243510334,
  "lat": 48.8686692,
  "lon": 2.3412605,
  "tags": {
    "STIF:zone": "1",
    "name": "Bourse",
    "name:ru": "Бурс",
    "railway": "station",
    "ref:FR:RATP": "1930",
    "station": "subway",
    "type:RATP": "metro",
    "wheelchair": "no",
    "wikipedia": "fr:Bourse (métro de Paris)"
  }
},
{
  "type": "node",
  "id": 243510335,
  "lat": 48.8695654,
  "lon": 2.3367072,
  "tags": {
    "STIF:zone": "1",
    "name": "Quatre Septembre",
    "name:fr": "Quatre Septembre",
    "name:ru": "Катр-Септамбр",
    "railway": "station",
    "ref:FR:RATP": "1744",
    "station": "subway",
    "type:RATP": "metro",
    "wikipedia": "fr:Quatre-Septembre (métro de Paris)"
  }
},
{
  "type": "node",
  "id": 243510336,
  "lat": 48.8707693,
  "lon": 2.3322643,
  "tags": {
    "STIF:zone": "1",
    "name": "Opéra",
    "name:ru": "Опера",
    "railway": "station",
    "ref:FR:RATP": "1771",
    "station": "subway",
    "type:RATP": "metro",
    "wheelchair": "no",
    "wikipedia": "fr:Opéra (métro de Paris)"
  }
},
{
  "type": "node",
  "id": 243510337,
  "lat": 48.8736019,
  "lon": 2.3276269,
  "tags": {
    "STIF:zone": "1",
    "name": "Havre - Caumartin",
    "name:fr": "Havre - Caumartin",
    "name:ru": "Гавр — Комартен",
    "railway": "station",
    "ref:FR:RATP": "1852",
    "station": "subway",
    "type:RATP": "metro",
    "wheelchair": "no",
    "wikipedia": "fr:Havre - Caumartin (métro de Paris)"
  }
},
{
  "type": "node",
  "id": 243510338,
  "lat": 48.8754744,
  "lon": 2.3254192,
  "tags": {
    "STIF:zone": "1",
    "name": "Saint-Lazare",
    "name:ru": "Сен-Лазар",
    "railway": "station",
    "ref:FR:RATP": "1689",
    "station": "subway",
    "type:RATP": "metro",
    "wheelchair": "no",
    "wikipedia": "fr:Saint-Lazare (métro de Paris)"
  }
},
{
  "type": "node",
  "id": 243510678,
  "lat": 48.8825292,
  "lon": 2.3110507,
  "tags": {
    "STIF:zone": "1",
    "name": "Malesherbes",
    "name:ru": "Мальзерб",
    "railway": "station",
    "ref:FR:RATP": "1826",
    "station": "subway",
    "type:RATP": "metro",
    "wheelchair": "no",
    "wikipedia": "fr:Malesherbes (métro de Paris)"
  }
},
{
  "type": "node",
  "id": 243510679,
  "lat": 48.8839908,
  "lon": 2.3042907,
  "tags": {
    "STIF:zone": "1",
    "name": "Wagram",
    "name:ru": "Ваграм",
    "railway": "station",
    "ref:FR:RATP": "1658",
    "station": "subway",
    "type:RATP": "metro",
    "wheelchair": "no",
    "wikipedia": "fr:Wagram (métro de Paris)"
  }
},
{
  "type": "node",
  "id": 243510680,
  "lat": 48.8847948,
  "lon": 2.2982623,
  "tags": {
    "STIF:zone": "1",
    "name": "Péreire",
    "name:ru": "Перер",
    "railway": "station",
    "ref:FR:RATP": "1740",
    "station": "subway",
    "type:RATP": "metro",
    "wheelchair": "no",
    "wikipedia": "fr:Pereire (métro de Paris)"
  }
},
{
  "type": "node",
  "id": 243510681,
  "lat": 48.8856871,
  "lon": 2.2926417,
  "tags": {
    "STIF:zone": "1",
    "name": "Porte de Champerret",
    "name:ru": "Порт-де-Шанперре",
    "railway": "station",
    "ref:FR:RATP": "1722",
    "station": "subway",
    "type:RATP": "metro",
    "wheelchair": "no",
    "wikipedia": "fr:Porte de Champerret (métro de Paris)"
  }
},
{
  "type": "node",
  "id": 244494486,
  "lat": 48.8395785,
  "lon": 2.3012923,
  "tags": {
    "STIF:zone": "1",
    "alt_name": "Vaugirard (Adolphe Chérioux)",
    "name": "Vaugirard",
    "name:ru": "Вожирар",
    "railway": "station",
    "ref:FR:RATP": "1645;1604",
    "station": "subway",
    "type:RATP": "metro",
    "wheelchair": "no",
    "wikipedia": "fr:Vaugirard (métro de Paris)"
  }
},
{
  "type": "node",
  "id": 244494489,
  "lat": 48.8415118,
  "lon": 2.3080120,
  "tags": {
    "STIF:zone": "1",
    "name": "Volontaires",
    "name:ru": "Волонтер",
    "railway": "station",
    "ref:FR:RATP": "1656;1603",
    "station": "subway",
    "type:RATP": "metro",
    "wheelchair": "no",
    "wikipedia": "fr:Volontaires (métro de Paris)"
  }
},
{
  "type": "node",
  "id": 244494496,
  "lat": 48.8443954,
  "lon": 2.3175634,
  "tags": {
    "STIF:zone": "1",
    "name": "Falguière",
    "name:ru": "Фальгьер",
    "operator": "SNCF",
    "railway": "station",
    "ref:FR:RATP": "1601;1918",
    "source": "SNCF - 06/2013",
    "station": "subway",
    "type:RATP": "metro",
    "uic_ref": "8739100",
    "wheelchair": "no",
    "wikipedia": "fr:Falguière (métro de Paris)"
  }
},
{
  "type": "node",
  "id": 245250755,
  "lat": 48.8468543,
  "lon": 2.3166512,
  "tags": {
    "STIF:zone": "1",
    "name": "Duroc",
    "name:fr": "Duroc",
    "name:ru": "Дюрок",
    "railway": "station",
    "ref:FR:RATP": "1908",
    "station": "subway",
    "type:RATP": "metro",
    "wheelchair": "no",
    "wikipedia": "fr:Duroc (métro de Paris)"
  }
},
{
  "type": "node",
  "id": 245250758,
  "lat": 48.8514000,
  "lon": 2.3143901,
  "tags": {
    "STIF:zone": "1",
    "name": "Saint-François-Xavier",
    "name:ru": "Сэн-Франсуа-Ксавье",
    "railway": "station",
    "ref:FR:RATP": "1685",
    "station": "subway",
    "type:RATP": "metro",
    "wheelchair": "no",
    "wikipedia": "fr:Saint-François-Xavier (métro de Paris)"
  }
},
{
  "type": "node",
  "id": 245250759,
  "lat": 48.8568058,
  "lon": 2.3151577,
  "tags": {
    "STIF:zone": "1",
    "name": "Varenne",
    "name:ru": "Варен",
    "railway": "station",
    "ref:FR:RATP": "1644",
    "station": "subway",
    "type:RATP": "metro",
    "wheelchair": "no",
    "wikipedia": "fr:Varenne (métro de Paris)"
  }
},
{
  "type": "node",
  "id": 245282439,
  "lat": 48.8395530,
  "lon": 2.6543891,
  "tags": {
    "STIF:zone": "5",
    "name": "Torcy",
    "railway": "station",
    "ref:FR:RATP": "1637",
    "type:RATP": "rer",
    "uic_ref": "8775837",
    "wheelchair": "yes",
    "wikipedia": "fr:Gare de Torcy"
  }
},
{
  "type": "node",
  "id": 245455187,
  "lat": 48.8413343,
  "lon": 2.4008998,
  "tags": {
    "STIF:zone": "1",
    "name": "Bel-Air",
    "railway": "station",
    "ref:FR:RATP": "2003",
    "station": "subway",
    "type:RATP": "metro",
    "wikipedia": "fr:Bel-Air (métro de Paris)"
  }
},
{
  "type": "node",
  "id": 246806932,
  "lat": 48.6949696,
  "lon": 2.1526331,
  "tags": {
    "STIF:zone": "5",
    "name": "La Hacquinière",
    "railway": "station",
    "ref:FR:RATP": "1873",
    "type:RATP": "rer",
    "uic_ref": "8775886",
    "wheelchair": "yes",
    "wikipedia": "fr:Gare de La Hacquinière"
  }
},
{
  "type": "node",
  "id": 247312316,
  "lat": 48.6344947,
  "lon": 2.4522297,
  "tags": {
    "STIF:zone": "5",
    "name": "Évry Val de Seine",
    "official_name": "EVRY - VAL DE SEINE",
    "old_name": "Évry",
    "operator": "SNCF",
    "public_transport": "stop_position",
    "railway": "station",
    "ref": "RER D",
    "ref:FR:RATP": "20966",
    "route_ref:FR:RER_D": "ROVO; SOVA; UOVA; LOVA; FOVA; VOVA; DOVA",
    "train": "yes",
    "type:RATP": "rer",
    "uic_ref": "8768136",
    "wikipedia": "fr:Gare d'Évry-Val-de-Seine"
  }
},
{
  "type": "node",
  "id": 247313295,
  "lat": 48.6141194,
  "lon": 2.4738942,
  "tags": {
    "STIF:zone": "5",
    "name": "Corbeil-Essonnes",
    "official_name": "CORBEIL ESSONNES",
    "operator": "SNCF",
    "railway": "station",
    "ref:FR:RATP": "20974",
    "route_ref:FR:RER_D": "ZOPO; ROVO; RIPE; BIPE; BIPO; ZIPE; ROPO; TIPE; RIPO; BOPO; ZIPO",
    "source": "survey",
    "type:RATP": "rer",
    "uic_ref": "8768100",
    "wikipedia": "fr:Gare de Corbeil-Essonnes"
  }
},
{
  "type": "node",
  "id": 247381687,
  "lat": 48.3936795,
  "lon": 2.3934230,
  "tags": {
    "STIF:zone": "5",
    "name": "Maisse",
    "official_name": "MAISSE",
    "operator": "SNCF",
    "railway": "station",
    "ref:FR:RATP": "20980",
    "type:RATP": "rer",
    "uic_ref": "8768148",
    "wikipedia": "fr:Gare de Maisse"
  }
},
{
  "type": "node",
  "id": 247381699,
  "lat": 48.3708638,
  "lon": 2.3870869,
  "tags": {
    "STIF:zone": "5",
    "name": "Buno - Gironville",
    "note:fr": "Station sans gare",
    "official_name": "BUNO GIRONVILLE",
    "operator": "SNCF",
    "railway": "station",
    "ref:FR:RATP": "20981",
    "type:RATP": "rer",
    "uic_ref": "8768151",
    "wikipedia": "fr:Gare de Buno - Gironville"
  }
},
{
  "type": "node",
  "id": 247800932,
  "lat": 48.5321637,
  "lon": 2.3711049,
  "tags": {
    "STIF:zone": "5",
    "name": "Ballancourt-sur-Essonne",
    "official_name": "BALLANCOURT",
    "operator": "SNCF",
    "railway": "station",
    "ref:FR:RATP": "20977",
    "type:RATP": "rer",
    "uic_ref": "8768143",
    "wikipedia": "fr:Gare de Ballancourt"
  }
},
{
  "type": "node",
  "id": 248037991,
  "lat": 48.5862473,
  "lon": 2.4734753,
  "tags": {
    "STIF:zone": "5",
    "name": "Moulin-Galant",
    "official_name": "MOULIN GALANT",
    "operator": "SNCF",
    "railway": "station",
    "ref:FR:RATP": "20975",
    "type:RATP": "rer",
    "uic_ref": "8768140",
    "wikipedia": "fr:Gare de Moulin-Galant"
  }
},
{
  "type": "node",
  "id": 248052158,
  "lat": 48.6056156,
  "lon": 2.4626195,
  "tags": {
    "STIF:zone": "5",
    "alt_name": "Essonnes-Robinson",
    "name": "Essonnes Robinson",
    "official_name": "ESSONNES ROBINSON",
    "operator": "SNCF",
    "railway": "station",
    "ref:FR:RATP": "109708",
    "route_ref:FR:RER_D": "ZOPO; ZIPE; ZIPO",
    "source": "survey",
    "type:RATP": "rer",
    "uic_ref": "8768160",
    "wikipedia": "fr:Gare d'Essonnes - Robinson"
  }
},
{
  "type": "node",
  "id": 248434902,
  "lat": 48.5661679,
  "lon": 2.4924649,
  "tags": {
    "STIF:zone": "5",
    "alt_name": "Coudray-Montceaux",
    "name": "Le Coudray Montceaux",
    "official_name": "LE COUDRAY MONTCEAUX",
    "operator": "SNCF",
    "railway": "station",
    "ref:FR:RATP": "109711",
    "route_ref:FR:RER_D": "ZOPO; ZIPE; ZIPO",
    "type:RATP": "rer",
    "uic_ref": "8768163",
    "wikipedia": "fr:Gare du Coudray-Montceaux"
  }
},
{
  "type": "node",
  "id": 248667980,
  "lat": 48.5644973,
  "lon": 2.5426572,
  "tags": {
    "STIF:zone": "5",
    "name": "Saint-Fargeau",
    "official_name": "SAINT-FARGEAU",
    "operator": "SNCF",
    "railway": "station",
    "ref:FR:RATP": "109712",
    "route_ref:FR:RER_D": "ZOPO; ZIPE; ZIPO",
    "type:RATP": "rer",
    "uic_ref": "8768254",
    "wikipedia": "fr:Gare de Saint-Fargeau"
  }
},
{
  "type": "node",
  "id": 248668008,
  "lat": 48.5349663,
  "lon": 2.5450384,
  "tags": {
    "STIF:zone": "5",
    "name": "Ponthierry Pringy",
    "official_name": "PONTHIERRY PRINGY",
    "operator": "SNCF",
    "railway": "station",
    "ref:FR:RATP": "109713",
    "route_ref:FR:RER_D": "ZOPO; ZIPE; ZIPO",
    "source": "survey",
    "type:RATP": "rer",
    "uic_ref": "8768252",
    "wikipedia": "fr:Gare de Ponthierry - Pringy"
  }
},
{
  "type": "node",
  "id": 248734468,
  "lat": 48.5151477,
  "lon": 2.5991443,
  "tags": {
    "STIF:zone": "5",
    "name": "Vosves",
    "official_name": "VOSVES",
    "operator": "SNCF",
    "railway": "station",
    "ref:FR:RATP": "109715",
    "route_ref:FR:RER_D": "ZUCO; NUCO; ZECO",
    "type:RATP": "rer",
    "wikipedia": "fr:Gare de Vosves"
  }
},
{
  "type": "node",
  "id": 248734739,
  "lat": 48.5294263,
  "lon": 2.5728358,
  "tags": {
    "STIF:zone": "5",
    "name": "Boissise-le-Roi",
    "official_name": "BOISSISE LE ROI",
    "railway": "station",
    "ref:FR:RATP": "109714",
    "route_ref:FR:RER_D": "ZOPO; ZIPE; ZIPO",
    "type:RATP": "rer",
    "uic_ref": "8768251",
    "wikipedia": "fr:Gare de Boissise-le-Roi"
  }
},
{
  "type": "node",
  "id": 248812250,
  "lat": 48.5276049,
  "lon": 2.6554900,
  "tags": {
    "STIF:zone": "5",
    "name": "Melun",
    "name:zh": "默伦",
    "official_name": "MELUN",
    "operator": "SNCF",
    "railway": "station",
    "ref:FR:RATP": "20993",
    "route_ref:FR:RER_D": "ZOPO; ZUPO; ZIPE; ZIPO; ZECO",
    "source": "survey",
    "type:RATP": "rer",
    "uic_ref": "8768200",
    "wikipedia": "fr:Gare de Melun"
  }
},
{
  "type": "node",
  "id": 249335596,
  "lat": 48.8905035,
  "lon": 2.3598783,
  "tags": {
    "STIF:zone": "1",
    "name": "Marx Dormoy",
    "railway": "station",
    "ref:FR:RATP": "1831",
    "station": "subway",
    "type:RATP": "metro",
    "wheelchair": "no",
    "wikipedia": "fr:Marx Dormoy (métro de Paris)"
  }
},
{
  "type": "node",
  "id": 249524554,
  "lat": 48.9162246,
  "lon": 2.2948689,
  "tags": {
    "STIF:zone": "1",
    "alt_name": "Asnières – Gennevilliers – Gabriel Péri",
    "name": "Gabriel Péri",
    "old_name": "Asnières – Gennevilliers",
    "railway": "station",
    "ref:FR:RATP": "22443",
    "station": "subway",
    "type:RATP": "metro",
    "wikipedia": "fr:Gabriel Péri (métro de Paris)"
  }
},
{
  "type": "node",
  "id": 251387813,
  "lat": 48.8707855,
  "lon": 2.3611531,
  "tags": {
    "STIF:zone": "1",
    "name": "Jacques Bonsergent",
    "railway": "station",
    "ref:FR:RATP": "1859",
    "station": "subway",
    "type:RATP": "metro",
    "wikipedia": "fr:Jacques Bonsergent (métro de Paris)"
  }
},
{
  "type": "node",
  "id": 252133924,
  "lat": 48.8924913,
  "lon": 2.4993898,
  "tags": {
    "STIF:zone": "3",
    "name": "Les Coquetiers",
    "railway": "tram_stop",
    "ref:FR:RATP": "139447",
    "type:RATP": "tram"
  }
},
{
  "type": "node",
  "id": 252136190,
  "lat": 48.9078575,
  "lon": 2.5168614,
  "tags": {
    "STIF:zone": "4",
    "name": "Gargan",
    "railway": "tram_stop",
    "ref:FR:RATP": "139444",
    "type:RATP": "tram",
    "wikipedia": "fr:Gargan (tramway d'Île-de-France)"
  }
},
{
  "type": "node",
  "id": 252136676,
  "lat": 48.9265328,
  "lon": 2.5191432,
  "tags": {
    "STIF:zone": "4",
    "name": "Freinville - Sevran",
    "railway": "tram_stop",
    "ref:FR:RATP": "139441",
    "type:RATP": "tram",
    "wikipedia": "fr:Freinville - Sevran (tramway d'Île-de-France)"
  }
},
{
  "type": "node",
  "id": 252136683,
  "lat": 48.9308682,
  "lon": 2.5152436,
  "tags": {
    "STIF:zone": "4",
    "name": "Rougemont - Chanteloup",
    "railway": "tram_stop",
    "ref:FR:RATP": "139440",
    "type:RATP": "tram"
  }
},
{
  "type": "node",
  "id": 252136693,
  "lat": 48.9319525,
  "lon": 2.4961150,
  "tags": {
    "STIF:zone": "4",
    "name": "Aulnay-sous-Bois",
    "railway": "tram_stop",
    "ref:FR:RATP": "139439",
    "type:RATP": "tram"
  }
},
{
  "type": "node",
  "id": 252606513,
  "lat": 48.8971320,
  "lon": 2.5064295,
  "tags": {
    "STIF:zone": "4",
    "name": "Allée de la Tour-Rendez-Vous",
    "railway": "tram_stop",
    "ref:FR:RATP": "139446",
    "type:RATP": "tram"
  }
},
{
  "type": "node",
  "id": 253868629,
  "lat": 48.7178575,
  "lon": 2.2464627,
  "tags": {
    "STIF:zone": "4",
    "name": "Palaiseau",
    "railway": "station",
    "ref:FR:RATP": "1775",
    "type:RATP": "rer",
    "uic_ref": "8739357",
    "wheelchair": "yes",
    "wikipedia": "fr:Gare de Palaiseau"
  }
},
{
  "type": "node",
  "id": 255000799,
  "lat": 48.8921077,
  "lon": 2.2852229,
  "tags": {
    "STIF:zone": "1",
    "name": "Anatole France",
    "name:ru": "Анатоль Франс",
    "railway": "station",
    "ref:FR:RATP": "1982",
    "station": "subway",
    "type:RATP": "metro",
    "wikipedia": "fr:Anatole France (métro de Paris)"
  }
},
{
  "type": "node",
  "id": 255076352,
  "lat": 48.7988707,
  "lon": 2.0729686,
  "tags": {
    "SNCF:hackess:completeness": "5",
    "STIF:zone": "5",
    "name": "Saint-Cyr",
    "operator": "SNCF",
    "railway": "station",
    "ref:FR:RATP": "5589",
    "type:RATP": "rer",
    "uic_ref": "87393223",
    "wheelchair": "no",
    "wikipedia": "fr:Gare de Saint-Cyr"
  }
},
{
  "type": "node",
  "id": 255160720,
  "lat": 48.8579460,
  "lon": 2.4357587,
  "tags": {
    "STIF:zone": "1",
    "alt_name": "Croix-de-Chavaux (Jacques Duclos)",
    "name": "Croix de Chavaux",
    "railway": "station",
    "ref:FR:RATP": "1896",
    "station": "subway",
    "type:RATP": "metro",
    "wheelchair": "no",
    "wikipedia": "fr:Croix de Chavaux (métro de Paris)"
  }
},
{
  "type": "node",
  "id": 255160722,
  "lat": 48.8625988,
  "lon": 2.4415690,
  "tags": {
    "STIF:zone": "1",
    "name": "Mairie de Montreuil",
    "railway": "station",
    "ref:FR:RATP": "1817",
    "station": "subway",
    "type:RATP": "metro",
    "wikipedia": "fr:Mairie de Montreuil (métro de Paris)"
  }
},
{
  "type": "node",
  "id": 255161921,
  "lat": 48.8971408,
  "lon": 2.2803973,
  "tags": {
    "STIF:zone": "1",
    "alt_name": "Pont de Levallois-Bécon",
    "internet_access": "no",
    "internet_access:fee": "no",
    "name": "Pont de Levallois – Bécon",
    "name:fr": "Pont de Levallois – Bécon",
    "name:ru": "Пон-де-Левалюа — Бекон",
    "note": "Métropolitain parisien ; ligne 3.",
    "railway": "station",
    "ref:FR:RATP": "1708",
    "station": "subway",
    "type:RATP": "metro",
    "wheelchair": "no",
    "wikipedia": "fr:Pont de Levallois - Bécon (métro de Paris)"
  }
},
{
  "type": "node",
  "id": 255162203,
  "lat": 48.8887892,
  "lon": 2.2878755,
  "tags": {
    "STIF:zone": "1",
    "name": "Louise Michel",
    "name:ru": "Луиз Мишель",
    "railway": "station",
    "ref:FR:RATP": "1807",
    "station": "subway",
    "type:RATP": "metro",
    "wikipedia": "fr:Louise Michel (métro de Paris)"
  }
},
{
  "type": "node",
  "id": 255687197,
  "lat": 48.8295920,
  "lon": 2.2629779,
  "tags": {
    "STIF:zone": "2",
    "name": "Issy Val-de-Seine",
    "public_transport": "stop_position",
    "railway": "tram_stop",
    "ref:FR:RATP": "446340",
    "source": "RATP - 07/2012",
    "tram": "yes",
    "type:RATP": "tram",
    "wheelchair": "yes",
    "wikipedia": "fr:Gare d'Issy - Val de Seine"
  }
},
{
  "type": "node",
  "id": 256441194,
  "lat": 48.8526992,
  "lon": 2.4061094,
  "tags": {
    "STIF:zone": "1",
    "name": "Maraîchers",
    "railway": "station",
    "ref:FR:RATP": "55372",
    "station": "subway",
    "type:RATP": "metro",
    "wikipedia": "fr:Maraîchers (métro de Paris)"
  }
},
{
  "type": "node",
  "id": 256442276,
  "lat": 48.8534759,
  "lon": 2.4105242,
  "tags": {
    "STIF:zone": "1",
    "name": "Porte de Montreuil",
    "railway": "station",
    "ref:FR:RATP": "1727",
    "station": "subway",
    "type:RATP": "metro",
    "wikipedia": "fr:Porte de Montreuil (métro de Paris)"
  }
},
{
  "type": "node",
  "id": 256442845,
  "lat": 48.8558145,
  "lon": 2.4237108,
  "tags": {
    "STIF:zone": "1",
    "name": "Robespierre",
    "name:ru": "Робеспьер",
    "railway": "station",
    "ref:FR:RATP": "1667",
    "station": "subway",
    "type:RATP": "metro",
    "wheelchair": "no",
    "wikipedia": "fr:Robespierre (métro de Paris)"
  }
},
{
  "type": "node",
  "id": 256443205,
  "lat": 48.8525808,
  "lon": 2.3887914,
  "tags": {
    "STIF:zone": "1",
    "name": "Rue des Boulets",
    "railway": "station",
    "ref:FR:RATP": "1673",
    "station": "subway",
    "type:RATP": "metro",
    "wheelchair": "no",
    "wikipedia": "fr:Rue des Boulets (métro de Paris)"
  }
},
{
  "type": "node",
  "id": 256443438,
  "lat": 48.8547441,
  "lon": 2.3853565,
  "tags": {
    "STIF:zone": "1",
    "alt_name": "Charonne (place du 6-Février-1962)",
    "name": "Charonne",
    "railway": "station",
    "ref:FR:RATP": "1955",
    "station": "subway",
    "type:RATP": "metro",
    "wheelchair": "no",
    "wikipedia": "fr:Charonne (métro de Paris)"
  }
},
{
  "type": "node",
  "id": 256895321,
  "lat": 48.8581580,
  "lon": 2.3798044,
  "tags": {
    "STIF:zone": "1",
    "alt_name": "Voltaire (Léon Blum)",
    "name": "Voltaire",
    "railway": "station",
    "ref:FR:RATP": "1657",
    "source": "survey 2013",
    "station": "subway",
    "type:RATP": "metro",
    "wheelchair": "no",
    "wikipedia": "fr:Voltaire (métro de Paris)"
  }
},
{
  "type": "node",
  "id": 256895609,
  "lat": 48.8610516,
  "lon": 2.3747956,
  "tags": {
    "STIF:zone": "1",
    "name": "Saint-Ambroise",
    "railway": "station",
    "ref:FR:RATP": "1680",
    "station": "subway",
    "type:RATP": "metro",
    "wikipedia": "fr:Saint-Ambroise (métro de Paris)"
  }
},
{
  "type": "node",
  "id": 256896059,
  "lat": 48.8641314,
  "lon": 2.3695694,
  "tags": {
    "STIF:zone": "1",
    "name": "Oberkampf",
    "railway": "station",
    "ref:FR:RATP": "1769",
    "station": "subway",
    "type:RATP": "metro",
    "wikipedia": "fr:Oberkampf (métro de Paris)"
  }
},
{
  "type": "node",
  "id": 256897077,
  "lat": 48.8694199,
  "lon": 2.3544678,
  "tags": {
    "STIF:zone": "1",
    "name": "Strasbourg - Saint-Denis",
    "operator": "RATP",
    "public_transport": "stop_position",
    "railway": "station",
    "ref:FR:RATP": "1628",
    "station": "subway",
    "subway": "yes",
    "type:RATP": "metro",
    "wheelchair": "no",
    "wikipedia": "fr:Strasbourg - Saint-Denis (métro de Paris)"
  }
},
{
  "type": "node",
  "id": 256897078,
  "lat": 48.8706004,
  "lon": 2.3487793,
  "tags": {
    "STIF:zone": "1",
    "name": "Bonne Nouvelle",
    "railway": "station",
    "ref:FR:RATP": "2015",
    "station": "subway",
    "type:RATP": "metro",
    "wheelchair": "no",
    "wikipedia": "fr:Bonne-Nouvelle (métro de Paris)"
  }
},
{
  "type": "node",
  "id": 256897079,
  "lat": 48.8715206,
  "lon": 2.3432861,
  "tags": {
    "STIF:zone": "1",
    "name": "Grands Boulevards",
    "old_name": "Montmartre; rue Montmartre",
    "railway": "station",
    "ref:FR:RATP": "1671",
    "station": "subway",
    "type:RATP": "metro",
    "wikipedia": "fr:Grands Boulevards (métro de Paris)"
  }
},
{
  "type": "node",
  "id": 256897080,
  "lat": 48.8720176,
  "lon": 2.3395091,
  "tags": {
    "STIF:zone": "1",
    "name": "Richelieu Drouot",
    "railway": "station",
    "ref:FR:RATP": "1665",
    "station": "subway",
    "type:RATP": "metro",
    "wheelchair": "no",
    "wikipedia": "fr:Richelieu - Drouot (métro de Paris)"
  }
},
{
  "type": "node",
  "id": 256897458,
  "lat": 48.8730612,
  "lon": 2.3333207,
  "tags": {
    "STIF:zone": "1",
    "name": "Chaussée d'Antin - La Fayette",
    "railway": "station",
    "ref:FR:RATP": "1957",
    "station": "subway",
    "type:RATP": "metro",
    "wheelchair": "no",
    "wikipedia": "fr:Chaussée d'Antin - La Fayette (métro de Paris)"
  }
},
{
  "type": "node",
  "id": 256897554,
  "lat": 48.8747030,
  "lon": 2.3197963,
  "tags": {
    "STIF:zone": "1",
    "name": "Saint-Augustin",
    "railway": "station",
    "ref:FR:RATP": "1681",
    "station": "subway",
    "type:RATP": "metro",
    "wheelchair": "no",
    "wikipedia": "fr:Saint-Augustin (métro de Paris)"
  }
},
{
  "type": "node",
  "id": 258068724,
  "lat": 48.8464740,
  "lon": 2.3659107,
  "tags": {
    "STIF:zone": "1",
    "name": "Quai de la Rapée",
    "railway": "station",
    "ref:FR:RATP": "1743",
    "station": "subway",
    "type:RATP": "metro",
    "wheelchair": "no",
    "wikipedia": "fr:Quai de la Rapée (métro de Paris)"
  }
},
{
  "type": "node",
  "id": 260016906,
  "lat": 48.8407276,
  "lon": 2.3213414,
  "tags": {
    "STIF:zone": "1",
    "bus_stop:type": "Abri autobus 3,35x1,40",
    "direction": "Porte d'Orléans, Vanves-Lycée Michelet, Montparnasse 2 - Gare TGV",
    "highway": "bus_stop",
    "line": "28, 58, 91",
    "name": "Gare Montparnasse",
    "name:RATP": "GARE MONTPARNASSE",
    "ref:FR:RATP": "11343818",
    "shelter": "yes",
    "source:position": "opendata.paris.fr - 04/2011",
    "type:RATP": "bus",
    "wheelchair": "yes"
  }
},
{
  "type": "node",
  "id": 260040829,
  "lat": 48.8422880,
  "lon": 2.3653613,
  "tags": {
    "SNCF:hackess:completeness": "4",
    "STIF:zone": "1",
    "name": "Gare d'Austerlitz",
    "name:ru": "Гар д'Остерлиц",
    "official_name": "PARIS AUSTERLITZ RER C",
    "public_transport": "stop_position",
    "railway": "station",
    "ref": "RER C; Métro 5",
    "ref:FR:RATP": "5605;1838;226221",
    "ref:SNCF": "RER",
    "ref:SNCF:RER": "C",
    "station": "subway",
    "type:RATP": "metro;rer",
    "uic_ref": "87547026",
    "wheelchair": "no",
    "wikipedia": "fr:Gare d'Austerlitz (métro de Paris)"
  }
},
{
  "type": "node",
  "id": 260040968,
  "lat": 48.8460116,
  "lon": 2.3549579,
  "tags": {
    "STIF:zone": "1",
    "name": "Jussieu",
    "name:fr": "Jussieu",
    "name:ru": "Жюссьё",
    "operator": "RATP",
    "railway": "station",
    "ref:FR:RATP": "1866",
    "station": "subway",
    "type:RATP": "metro",
    "wheelchair": "no",
    "wikipedia": "fr:Jussieu (métro de Paris)"
  }
},
{
  "type": "node",
  "id": 260078615,
  "lat": 48.8465082,
  "lon": 2.3517283,
  "tags": {
    "STIF:zone": "1",
    "name": "Cardinal Lemoine",
    "railway": "station",
    "ref:FR:RATP": "1942",
    "station": "subway",
    "type:RATP": "metro",
    "wikipedia": "fr:Cardinal Lemoine (métro de Paris)"
  }
},
{
  "type": "node",
  "id": 260078619,
  "lat": 48.8499051,
  "lon": 2.3487460,
  "tags": {
    "STIF:zone": "1",
    "name": "Maubert Mutualité",
    "railway": "station",
    "ref:FR:RATP": "1834",
    "station": "subway",
    "type:RATP": "metro",
    "wheelchair": "no",
    "wikipedia": "fr:Maubert - Mutualité (métro de Paris)"
  }
},
{
  "type": "node",
  "id": 260078622,
  "lat": 48.8508926,
  "lon": 2.3454617,
  "tags": {
    "STIF:zone": "1",
    "name": "Cluny - La Sorbonne",
    "railway": "station",
    "ref:FR:RATP": "54244",
    "station": "subway",
    "type:RATP": "metro",
    "wheelchair": "yes",
    "wikipedia": "fr:Cluny - La Sorbonne (métro de Paris)"
  }
},
{
  "type": "node",
  "id": 260079008,
  "lat": 48.8521785,
  "lon": 2.3394266,
  "tags": {
    "STIF:zone": "1",
    "name": "Odéon",
    "name:ru": "Одеон",
    "operator": "RATP",
    "public_transport": "stop_position",
    "railway": "station",
    "ref:FR:RATP": "1770",
    "station": "subway",
    "subway": "yes",
    "type:RATP": "metro",
    "wheelchair": "no",
    "wikipedia": "fr:Odéon (métro de Paris)"
  }
},
{
  "type": "node",
  "id": 260079322,
  "lat": 48.8529427,
  "lon": 2.3357457,
  "tags": {
    "STIF:zone": "1",
    "name": "Mabillon",
    "railway": "station",
    "ref:FR:RATP": "1812",
    "station": "subway",
    "type:RATP": "metro",
    "wheelchair": "no",
    "wikipedia": "fr:Mabillon (métro de Paris)"
  }
},
{
  "type": "node",
  "id": 260231828,
  "lat": 48.8363894,
  "lon": 2.2784000,
  "tags": {
    "STIF:zone": "1",
    "name": "Balard",
    "railway": "station",
    "ref:FR:RATP": "1997;1609",
    "station": "subway",
    "type:RATP": "metro",
    "wheelchair": "no",
    "wikipedia": "fr:Balard (métro de Paris)"
  }
},
{
  "type": "node",
  "id": 260231831,
  "lat": 48.8387450,
  "lon": 2.2821427,
  "tags": {
    "STIF:zone": "1",
    "name": "Lourmel",
    "railway": "station",
    "ref:FR:RATP": "1808;1610",
    "station": "subway",
    "type:RATP": "metro",
    "wheelchair": "no",
    "wikipedia": "fr:Lourmel (métro de Paris)"
  }
},
{
  "type": "node",
  "id": 260231832,
  "lat": 48.8410837,
  "lon": 2.2879218,
  "tags": {
    "STIF:zone": "1",
    "name": "Boucicaut",
    "railway": "station",
    "ref:FR:RATP": "2017;1611",
    "station": "subway",
    "type:RATP": "metro",
    "wheelchair": "no",
    "wikipedia": "fr:Boucicaut (métro de Paris)"
  }
},
{
  "type": "node",
  "id": 260231833,
  "lat": 48.8426906,
  "lon": 2.2917758,
  "tags": {
    "STIF:zone": "1",
    "name": "Félix Faure",
    "railway": "station",
    "ref:FR:RATP": "1612;1925",
    "station": "subway",
    "type:RATP": "metro",
    "wheelchair": "no",
    "wikipedia": "fr:Félix Faure (métro de Paris)"
  }
},
{
  "type": "node",
  "id": 260743996,
  "lat": 48.8453875,
  "lon": 2.3686867,
  "tags": {
    "STIF:zone": "1",
    "bus_stop:type": "Abri autobus Télécom petit modèle",
    "highway": "bus_stop",
    "name": "Pont d'Austerlitz - Quai de la Rapée",
    "name:RATP": "PONT D'AUSTERLITZ - QUAI DE LA RAPEE",
    "operator": "RATP",
    "ref:FR:RATP": "11342983",
    "shelter": "yes",
    "source:position": "opendata.paris.fr - 04/2011",
    "type:RATP": "bus",
    "wheelchair": "yes"
  }
},
{
  "type": "node",
  "id": 260744181,
  "lat": 48.8446991,
  "lon": 2.3642693,
  "tags": {
    "STIF:zone": "1",
    "bus_stop:type": "Abri autobus 4x1,30",
    "highway": "bus_stop",
    "name": "Gare d'Austerlitz",
    "name:RATP": "GARE D'AUSTERLITZ",
    "operator": "RATP",
    "ref:FR:RATP": "11342984",
    "shelter": "yes",
    "source:position": "opendata.paris.fr - 04/2011",
    "type:RATP": "bus",
    "wheelchair": "yes"
  }
},
{
  "type": "node",
  "id": 260744184,
  "lat": 48.8460901,
  "lon": 2.3720874,
  "tags": {
    "STIF:zone": "1",
    "bus": "yes",
    "bus_stop:type": "Abri autobus 4x1,60",
    "highway": "bus_stop",
    "name": "Gare de Lyon - Diderot",
    "name:RATP": "GARE DE LYON - DIDEROT",
    "public_transport": "platform",
    "ref:FR:RATP": "11342248",
    "shelter": "yes",
    "source:position": "opendata.paris.fr - 04/2011",
    "type:RATP": "bus",
    "wheelchair": "no"
  }
},
{
  "type": "node",
  "id": 260762378,
  "lat": 48.8389924,
  "lon": 2.3896778,
  "tags": {
    "STIF:zone": "1",
    "name": "Dugommier",
    "railway": "station",
    "ref:FR:RATP": "1906",
    "station": "subway",
    "type:RATP": "metro",
    "wikipedia": "fr:Dugommier (métro de Paris)"
  }
},
{
  "type": "node",
  "id": 260762379,
  "lat": 48.8395253,
  "lon": 2.3958919,
  "tags": {
    "STIF:zone": "1",
    "alt_name": "Daumesnil (Félix Eboué)",
    "name": "Daumesnil",
    "name:ru": "Домениль",
    "railway": "station",
    "ref:FR:RATP": "1901",
    "station": "subway",
    "type:RATP": "metro",
    "wheelchair": "no",
    "wikipedia": "fr:Daumesnil (métro de Paris)"
  }
},
{
  "type": "node",
  "id": 260762540,
  "lat": 48.8401067,
  "lon": 2.3799581,
  "tags": {
    "STIF:zone": "1",
    "name": "Bercy",
    "operator": "RATP",
    "railway": "station",
    "ref:FR:RATP": "2005",
    "station": "subway",
    "type:RATP": "metro",
    "wheelchair": "yes",
    "wikipedia": "fr:Bercy (métro de Paris)"
  }
},
{
  "type": "node",
  "id": 260763474,
  "lat": 48.8410654,
  "lon": 2.3249923,
  "tags": {
    "STIF:zone": "1",
    "name": "Edgar Quinet",
    "railway": "station",
    "ref:FR:RATP": "1910",
    "station": "subway",
    "type:RATP": "metro",
    "wheelchair": "no",
    "wikipedia": "fr:Edgar Quinet (métro de Paris)"
  }
},
{
  "type": "node",
  "id": 260764273,
  "lat": 48.8429457,
  "lon": 2.3126019,
  "tags": {
    "STIF:zone": "1",
    "name": "Pasteur",
    "name:ru": "Пастер",
    "railway": "station",
    "ref:FR:RATP": "1602;1781",
    "station": "subway",
    "type:RATP": "metro",
    "wheelchair": "no",
    "wikipedia": "fr:Pasteur (métro de Paris)"
  }
},
{
  "type": "node",
  "id": 260765385,
  "lat": 48.8716770,
  "lon": 2.2935098,
  "tags": {
    "STIF:zone": "1",
    "name": "Kléber",
    "railway": "station",
    "ref:FR:RATP": "1867",
    "station": "subway",
    "type:RATP": "metro",
    "wheelchair": "no",
    "wikipedia": "fr:Kléber (métro de Paris)"
  }
},
{
  "type": "node",
  "id": 260765387,
  "lat": 48.8669099,
  "lon": 2.2902715,
  "tags": {
    "STIF:zone": "1",
    "name": "Boissière",
    "name:ru": "Буасьер",
    "railway": "station",
    "ref:FR:RATP": "2012",
    "station": "subway",
    "type:RATP": "metro",
    "wheelchair": "no",
    "wikipedia": "fr:Boissière (métro de Paris)"
  }
},
{
  "type": "node",
  "id": 260765389,
  "lat": 48.8630266,
  "lon": 2.2870524,
  "tags": {
    "STIF:zone": "1",
    "name": "Trocadéro",
    "name:ru": "Трокадеро",
    "railway": "station",
    "ref:FR:RATP": "1639",
    "station": "subway",
    "type:RATP": "metro",
    "wheelchair": "no",
    "wikipedia": "fr:Trocadéro (métro de Paris)"
  }
},
{
  "type": "node",
  "id": 260765390,
  "lat": 48.8573825,
  "lon": 2.2859234,
  "tags": {
    "STIF:zone": "1",
    "name": "Passy",
    "name:ru": "Пасси",
    "operator": "RATP",
    "railway": "station",
    "ref:FR:RATP": "1780",
    "station": "subway",
    "type:RATP": "metro",
    "wheelchair": "yes",
    "wikipedia": "fr:Passy (métro de Paris)"
  }
},
{
  "type": "node",
  "id": 260767422,
  "lat": 48.8646725,
  "lon": 2.2937783,
  "tags": {
    "STIF:zone": "1",
    "name": "Iéna",
    "railway": "station",
    "ref:FR:RATP": "1858",
    "station": "subway",
    "type:RATP": "metro",
    "wheelchair": "no",
    "wikipedia": "fr:Iéna (métro de Paris)"
  }
},
{
  "type": "node",
  "id": 260767423,
  "lat": 48.8640063,
  "lon": 2.2780859,
  "tags": {
    "STIF:zone": "1",
    "alt_name": "Rue de la Pompe (Avenue Georges Mandel)",
    "name": "Rue de la Pompe",
    "railway": "station",
    "ref:FR:RATP": "1672",
    "station": "subway",
    "type:RATP": "metro",
    "wheelchair": "no",
    "wikipedia": "fr:Rue de la Pompe (métro de Paris)"
  }
},
{
  "type": "node",
  "id": 260767424,
  "lat": 48.8580816,
  "lon": 2.2741958,
  "tags": {
    "STIF:zone": "1",
    "name": "La Muette",
    "name:ru": "Ля-Мюэт",
    "railway": "station",
    "ref:FR:RATP": "1876",
    "station": "subway",
    "type:RATP": "metro",
    "wheelchair": "no",
    "wikipedia": "fr:La Muette (métro de Paris)"
  }
},
{
  "type": "node",
  "id": 260767425,
  "lat": 48.8555764,
  "lon": 2.2702166,
  "tags": {
    "STIF:zone": "1",
    "name": "Ranelagh",
    "railway": "station",
    "ref:FR:RATP": "1659",
    "station": "subway",
    "type:RATP": "metro",
    "wheelchair": "no",
    "wikipedia": "fr:Ranelagh (métro de Paris)"
  }
},
{
  "type": "node",
  "id": 260767426,
  "lat": 48.8525598,
  "lon": 2.2681802,
  "tags": {
    "STIF:zone": "1",
    "name": "Jasmin",
    "railway": "station",
    "ref:FR:RATP": "1860",
    "station": "subway",
    "type:RATP": "metro",
    "wheelchair": "no",
    "wikipedia": "fr:Jasmin (métro de Paris)"
  }
},
{
  "type": "node",
  "id": 260767427,
  "lat": 48.8480038,
  "lon": 2.2641872,
  "tags": {
    "STIF:zone": "1",
    "name": "Michel-Ange - Auteuil",
    "railway": "station",
    "ref:FR:RATP": "1836",
    "station": "subway",
    "type:RATP": "metro",
    "wheelchair": "no",
    "wikipedia": "fr:Michel-Ange - Auteuil (métro de Paris)"
  }
},
{
  "type": "node",
  "id": 260767428,
  "lat": 48.8452505,
  "lon": 2.2618802,
  "tags": {
    "STIF:zone": "1",
    "name": "Michel-Ange - Molitor",
    "railway": "station",
    "ref:FR:RATP": "1837",
    "station": "subway",
    "type:RATP": "metro",
    "wheelchair": "no",
    "wikipedia": "fr:Michel-Ange - Molitor (métro de Paris)"
  }
},
{
  "type": "node",
  "id": 260767429,
  "lat": 48.8430044,
  "lon": 2.2600472,
  "tags": {
    "STIF:zone": "1",
    "name": "Exelmans",
    "railway": "station",
    "ref:FR:RATP": "1916",
    "station": "subway",
    "type:RATP": "metro",
    "wheelchair": "no",
    "wikipedia": "fr:Exelmans (métro de Paris)"
  }
},
{
  "type": "node",
  "id": 260767430,
  "lat": 48.8377707,
  "lon": 2.2565741,
  "tags": {
    "STIF:zone": "1",
    "name": "Porte de Saint-Cloud",
    "railway": "station",
    "ref:FR:RATP": "1729",
    "station": "subway",
    "type:RATP": "metro",
    "wheelchair": "no",
    "wikipedia": "fr:Porte de Saint-Cloud (métro de Paris)"
  }
},
{
  "type": "node",
  "id": 260769132,
  "lat": 48.8649686,
  "lon": 2.3006256,
  "tags": {
    "STIF:zone": "1",
    "name": "Alma-Marceau",
    "railway": "station",
    "ref:FR:RATP": "1980",
    "station": "subway",
    "type:RATP": "metro",
    "wheelchair": "no",
    "wikipedia": "fr:Alma - Marceau (métro de Paris)"
  }
},
{
  "type": "node",
  "id": 260769651,
  "lat": 48.8723362,
  "lon": 2.3100827,
  "tags": {
    "STIF:zone": "1",
    "name": "Saint-Philippe du Roule",
    "railway": "station",
    "ref:FR:RATP": "1696",
    "station": "subway",
    "type:RATP": "metro",
    "wheelchair": "no",
    "wikipedia": "fr:/Saint-Philippe du Roule (métro de Paris)"
  }
},
{
  "type": "node",
  "id": 260769652,
  "lat": 48.8736768,
  "lon": 2.3145456,
  "tags": {
    "STIF:zone": "1",
    "name": "Miromesnil",
    "name:fr": "Miromesnil",
    "name:ru": "Миромениль",
    "railway": "station",
    "ref:FR:RATP": "1747",
    "station": "subway",
    "type:RATP": "metro",
    "wheelchair": "yes",
    "wikipedia": "fr:Miromesnil (métro de Paris)"
  }
},
{
  "type": "node",
  "id": 261162833,
  "lat": 48.8514587,
  "lon": 2.3267159,
  "tags": {
    "STIF:zone": "1",
    "name": "Sèvres-Babylone",
    "name:fr": "Sèvres Babylone",
    "name:ru": "Севр — Бабилон",
    "railway": "station",
    "ref:FR:RATP": "1632",
    "station": "subway",
    "type:RATP": "metro",
    "wheelchair": "no",
    "wikipedia": "fr:Sèvres - Babylone (métro de Paris)"
  }
},
{
  "type": "node",
  "id": 261611258,
  "lat": 48.9165653,
  "lon": 2.2948077,
  "tags": {
    "amenity": "bus_station",
    "type:RATP": "bus"
  }
},
{
  "type": "node",
  "id": 261611470,
  "lat": 48.9038952,
  "lon": 2.3053664,
  "tags": {
    "STIF:zone": "1",
    "name": "Mairie de Clichy",
    "railway": "station",
    "ref:FR:RATP": "1816",
    "station": "subway",
    "type:RATP": "metro",
    "wikipedia": "fr:Mairie de Clichy (métro de Paris)"
  }
},
{
  "type": "node",
  "id": 261611873,
  "lat": 48.8939640,
  "lon": 2.3144204,
  "tags": {
    "SNCF:hackess:completeness": "2",
    "STIF:zone": "1",
    "name": "Porte de Clichy",
    "note": "mappée par Ratzillas à saisir !",
    "operator": "Metro-RER",
    "public_transport": "stop_position",
    "railway": "station",
    "ref:FR:RATP": "1725;5581",
    "station": "subway",
    "type:RATP": "metro;rer",
    "uic_ref": "87111278",
    "wheelchair": "no",
    "wikipedia": "fr:Porte de Clichy (métro de Paris)"
  }
},
{
  "type": "node",
  "id": 261611884,
  "lat": 48.8905170,
  "lon": 2.3201235,
  "tags": {
    "STIF:zone": "1",
    "name": "Brochant",
    "railway": "station",
    "ref:FR:RATP": "1931",
    "station": "subway",
    "type:RATP": "metro",
    "wheelchair": "no",
    "wikipedia": "fr:Brochant (métro de Paris)"
  }
},
{
  "type": "node",
  "id": 261612240,
  "lat": 48.8874127,
  "lon": 2.3256961,
  "tags": {
    "STIF:zone": "1",
    "name": "La Fourche",
    "name:fr": "La Fourche",
    "name:ru": "Ля-Фурш",
    "railway": "station",
    "ref:FR:RATP": "1872",
    "station": "subway",
    "type:RATP": "metro",
    "wheelchair": "no",
    "wikipedia": "fr:La Fourche (métro de Paris)"
  }
},
{
  "type": "node",
  "id": 261665825,
  "lat": 48.8470802,
  "lon": 2.3076354,
  "tags": {
    "STIF:zone": "1",
    "name": "Ségur",
    "railway": "station",
    "ref:FR:RATP": "1631",
    "station": "subway",
    "type:RATP": "metro",
    "wheelchair": "no",
    "wikipedia": "fr:Ségur (métro de Paris)"
  }
},
{
  "type": "node",
  "id": 261666122,
  "lat": 48.8470463,
  "lon": 2.2953101,
  "tags": {
    "STIF:zone": "1",
    "name": "Avenue Émile Zola",
    "railway": "station",
    "ref:FR:RATP": "1994",
    "station": "subway",
    "type:RATP": "metro",
    "wheelchair": "no",
    "wikipedia": "fr:Avenue Émile Zola (métro de Paris)"
  }
},
{
  "type": "node",
  "id": 263497271,
  "lat": 48.8606970,
  "lon": 2.3210551,
  "tags": {
    "STIF:zone": "1",
    "name": "Assemblée Nationale",
    "name:de": "Nationalversammlung",
    "name:en": "National Assembly",
    "name:es": "Asamblea Nacional",
    "name:it": "Assemblea Nazionale",
    "name:pt": "Assembleia Nacional",
    "name:ro": "Adunarea Națională",
    "name:ru": "Ассамбле-Насьональ",
    "railway": "station",
    "ref:FR:RATP": "1989",
    "station": "subway",
    "type:RATP": "metro",
    "wheelchair": "no",
    "wikipedia": "fr:Assemblée nationale (métro de Paris)"
  }
},
{
  "type": "node",
  "id": 263497272,
  "lat": 48.8586775,
  "lon": 2.3231168,
  "tags": {
    "STIF:zone": "1",
    "name": "Solférino",
    "name:ru": "Сольферино",
    "railway": "station",
    "ref:FR:RATP": "1622",
    "station": "subway",
    "type:RATP": "metro",
    "wheelchair": "no",
    "wikipedia": "fr:Solférino (métro de Paris)"
  }
},
{
  "type": "node",
  "id": 263499468,
  "lat": 48.8481026,
  "lon": 2.3277965,
  "tags": {
    "STIF:zone": "1",
    "name": "Rennes",
    "name:ru": "Рен",
    "railway": "station",
    "ref:FR:RATP": "1661",
    "station": "subway",
    "type:RATP": "metro",
    "wheelchair": "no",
    "wikipedia": "fr:Rennes (métro de Paris)"
  }
},
{
  "type": "node",
  "id": 263499471,
  "lat": 48.8452766,
  "lon": 2.3286613,
  "tags": {
    "STIF:zone": "1",
    "name": "Notre-Dame des Champs",
    "name:ru": "Нотр-Дам-де-Шан",
    "railway": "station",
    "ref:FR:RATP": "1768",
    "station": "subway",
    "type:RATP": "metro",
    "wheelchair": "no",
    "wikipedia": "fr:Notre-Dame-des-Champs (métro de Paris)"
  }
},
{
  "type": "node",
  "id": 263917856,
  "lat": 48.8656361,
  "lon": 2.3227452,
  "tags": {
    "STIF:zone": "1",
    "name": "Concorde",
    "name:de": "Eintracht",
    "name:es": "Concordia",
    "name:it": "Concorde",
    "name:pt": "Concórdia",
    "name:ru": "Конкорд",
    "operator": "RATP",
    "public_transport": "stop_position",
    "railway": "station",
    "ref:FR:RATP": "1885",
    "station": "subway",
    "type:RATP": "metro",
    "wheelchair": "limited",
    "wikipedia": "fr:Concorde (métro de Paris)"
  }
},
{
  "type": "node",
  "id": 264117312,
  "lat": 48.8700644,
  "lon": 2.3251637,
  "tags": {
    "STIF:zone": "1",
    "name": "Madeleine",
    "name:ru": "Мадлен",
    "railway": "station",
    "ref:FR:RATP": "1813",
    "station": "subway",
    "type:RATP": "metro",
    "wheelchair": "limited",
    "wikipedia": "fr:Madeleine (métro de Paris)"
  }
},
{
  "type": "node",
  "id": 264469160,
  "lat": 48.8446967,
  "lon": 2.2937668,
  "tags": {
    "STIF:zone": "1",
    "name": "Commerce",
    "railway": "station",
    "ref:FR:RATP": "1705;1973",
    "station": "subway",
    "type:RATP": "metro",
    "wheelchair": "no",
    "wikipedia": "fr:Commerce (métro de Paris)"
  }
},
{
  "type": "node",
  "id": 264469541,
  "lat": 48.8546428,
  "lon": 2.3061015,
  "tags": {
    "STIF:zone": "1",
    "name": "École Militaire",
    "name:fr": "École Militaire",
    "name:ru": "Эколь Милитер",
    "railway": "station",
    "ref:FR:RATP": "1909;1007",
    "station": "subway",
    "type:RATP": "metro",
    "wheelchair": "no",
    "wikipedia": "fr:École Militaire (métro de Paris)"
  }
},
{
  "type": "node",
  "id": 264473011,
  "lat": 48.8575837,
  "lon": 2.3102891,
  "tags": {
    "STIF:zone": "1",
    "name": "La Tour Maubourg",
    "name:ru": "Лятур-Мобур",
    "railway": "station",
    "ref:FR:RATP": "1008;54166",
    "station": "subway",
    "type:RATP": "metro",
    "wheelchair": "no",
    "wikipedia": "fr:La Tour-Maubourg (métro de Paris)"
  }
},
{
  "type": "node",
  "id": 264473695,
  "lat": 48.8611770,
  "lon": 2.3148333,
  "tags": {
    "STIF:zone": "1",
    "name": "Invalides",
    "name:ru": "Энвалид",
    "railway": "station",
    "ref:FR:RATP": "1857",
    "station": "subway",
    "type:RATP": "metro",
    "wheelchair": "no",
    "wikipedia": "fr:Invalides (métro de Paris)"
  }
},
{
  "type": "node",
  "id": 264476971,
  "lat": 48.8632968,
  "lon": 2.3668726,
  "tags": {
    "STIF:zone": "1",
    "name": "Filles du Calvaire",
    "name:ru": "Фий-дю-Кальвер",
    "railway": "station",
    "ref:FR:RATP": "1919",
    "station": "subway",
    "type:RATP": "metro",
    "wheelchair": "no",
    "wikipedia": "fr:Filles du Calvaire (métro de Paris)"
  }
},
{
  "type": "node",
  "id": 264479724,
  "lat": 48.8608519,
  "lon": 2.3671644,
  "tags": {
    "STIF:zone": "1",
    "name": "Saint-Sébastien - Froissart",
    "name:ru": "Сен-Себастьен — Фруассар",
    "railway": "station",
    "ref:FR:RATP": "1699",
    "station": "subway",
    "type:RATP": "metro",
    "wikipedia": "fr:Saint-Sébastien - Froissart (métro de Paris)"
  }
},
{
  "type": "node",
  "id": 264479775,
  "lat": 48.8575371,
  "lon": 2.3679970,
  "tags": {
    "STIF:zone": "1",
    "name": "Chemin Vert",
    "name:ru": "Шемен-Вер",
    "railway": "station",
    "ref:FR:RATP": "1958",
    "station": "subway",
    "type:RATP": "metro",
    "wikipedia": "fr:Chemin Vert (métro de Paris)"
  }
},
{
  "type": "node",
  "id": 264480619,
  "lat": 48.8531361,
  "lon": 2.3686313,
  "tags": {
    "name": "Bastille",
    "railway": "station",
    "station": "subway",
    "type:RATP": "metro",
    "wheelchair": "no",
    "wikipedia": "fr:Bastille (métro de Paris)"
  }
},
{
  "type": "node",
  "id": 264480784,
  "lat": 48.8511945,
  "lon": 2.3759944,
  "tags": {
    "STIF:zone": "1",
    "name": "Ledru-Rollin",
    "name:ru": "Ледрю-Роллен",
    "railway": "station",
    "ref:FR:RATP": "1798",
    "station": "subway",
    "type:RATP": "metro",
    "wikipedia": "fr:Ledru-Rollin (métro de Paris)"
  }
},
{
  "type": "node",
  "id": 264481019,
  "lat": 48.8500259,
  "lon": 2.3842705,
  "tags": {
    "STIF:zone": "1",
    "name": "Faidherbe — Chaligny",
    "name:ru": "Федерб — Шалиньи",
    "railway": "station",
    "ref:FR:RATP": "1917",
    "station": "subway",
    "type:RATP": "metro",
    "wikipedia": "fr:Faidherbe - Chaligny (métro de Paris)"
  }
},
{
  "type": "node",
  "id": 264481854,
  "lat": 48.8444003,
  "lon": 2.3899525,
  "tags": {
    "STIF:zone": "1",
    "name": "Montgallet",
    "name:ru": "Монгале",
    "railway": "station",
    "ref:FR:RATP": "1750",
    "station": "subway",
    "type:RATP": "metro",
    "wheelchair": "no",
    "wikipedia": "fr:Montgallet (métro de Paris)"
  }
},
{
  "type": "node",
  "id": 264482226,
  "lat": 48.8371074,
  "lon": 2.4024837,
  "tags": {
    "STIF:zone": "1",
    "name": "Michel Bizot",
    "name:ru": "Мишель Бизо",
    "railway": "station",
    "ref:FR:RATP": "1835",
    "station": "subway",
    "type:RATP": "metro",
    "wikipedia": "fr:Michel Bizot (métro de Paris)"
  }
},
{
  "type": "node",
  "id": 264482296,
  "lat": 48.8266498,
  "lon": 2.4057278,
  "tags": {
    "STIF:zone": "1",
    "name": "Liberté",
    "name:ru": "Либерте",
    "railway": "station",
    "ref:FR:RATP": "1803",
    "station": "subway",
    "type:RATP": "metro",
    "wheelchair": "no",
    "wikipedia": "fr:Liberté (métro de Paris)"
  }
},
{
  "type": "node",
  "id": 264482297,
  "lat": 48.8354584,
  "lon": 2.4063451,
  "tags": {
    "STIF:zone": "1",
    "name": "Porte Dorée",
    "name:ru": "Порт-Доре",
    "railway": "station",
    "ref:FR:RATP": "1715",
    "station": "subway",
    "type:RATP": "metro",
    "wheelchair": "no",
    "wikipedia": "fr:Porte Dorée (métro de Paris)"
  }
},
{
  "type": "node",
  "id": 264490283,
  "lat": 48.8450642,
  "lon": 2.4010776,
  "tags": {
    "STIF:zone": "1",
    "name": "Picpus",
    "railway": "station",
    "ref:FR:RATP": "1785",
    "station": "subway",
    "type:RATP": "metro",
    "wheelchair": "no",
    "wikipedia": "fr:Picpus (métro de Paris)"
  }
},
{
  "type": "node",
  "id": 264491191,
  "lat": 48.8333982,
  "lon": 2.3858500,
  "tags": {
    "STIF:zone": "1",
    "name": "Cour Saint-Émilion",
    "railway": "station",
    "ref:FR:RATP": "50055",
    "station": "subway",
    "type:RATP": "metro",
    "wheelchair": "yes",
    "wikipedia": "fr:Cour Saint-Émilion (métro de Paris)"
  }
},
{
  "type": "node",
  "id": 264491193,
  "lat": 48.8269184,
  "lon": 2.3662163,
  "tags": {
    "STIF:zone": "1",
    "name": "Olympiades",
    "railway": "station",
    "ref:FR:RATP": "171507",
    "station": "subway",
    "type:RATP": "metro",
    "wheelchair": "yes",
    "wikipedia": "fr:Olympiades (métro de Paris)"
  }
},
{
  "type": "node",
  "id": 264491320,
  "lat": 48.8322556,
  "lon": 2.3989811,
  "tags": {
    "STIF:zone": "1",
    "name": "Porte de Charenton",
    "name:ru": "Порт-де-Шарантон",
    "railway": "station",
    "ref:FR:RATP": "1723",
    "station": "subway",
    "type:RATP": "metro",
    "wheelchair": "no",
    "wikipedia": "fr:Porte de Charenton (métro de Paris)"
  }
},
{
  "type": "node",
  "id": 264494507,
  "lat": 48.8656737,
  "lon": 2.3344599,
  "tags": {
    "STIF:zone": "1",
    "name": "Pyramides",
    "railway": "station",
    "ref:FR:RATP": "1738;50047",
    "station": "subway",
    "type:RATP": "metro",
    "wikipedia": "fr:Pyramides (métro de Paris)"
  }
},
{
  "type": "node",
  "id": 264495077,
  "lat": 48.8763705,
  "lon": 2.3326310,
  "tags": {
    "STIF:zone": "1",
    "name": "Trinité d'Estienne d'Orves",
    "name:ru": "Трините — д’Эстьен д’Орв",
    "railway": "station",
    "ref:FR:RATP": "1638;3108",
    "station": "subway",
    "type:RATP": "metro",
    "wheelchair": "no",
    "wikipedia": "fr:Trinité - d'Estienne d'Orves (métro de Paris)"
  }
},
{
  "type": "node",
  "id": 264495078,
  "lat": 48.8760654,
  "lon": 2.3385532,
  "tags": {
    "STIF:zone": "1",
    "name": "Notre-Dame de Lorette",
    "name:ru": "Нотр-Дам-де-Лорет",
    "railway": "station",
    "ref:FR:RATP": "1767;3109",
    "station": "subway",
    "type:RATP": "metro",
    "wheelchair": "no",
    "wikipedia": "fr:Notre-Dame-de-Lorette (métro de Paris)"
  }
},
{
  "type": "node",
  "id": 264495553,
  "lat": 48.8557241,
  "lon": 2.3256659,
  "tags": {
    "STIF:zone": "1",
    "name": "Rue du Bac",
    "name:ru": "Рю-дю-Бак",
    "railway": "station",
    "ref:FR:RATP": "1674",
    "station": "subway",
    "type:RATP": "metro",
    "wheelchair": "no",
    "wikipedia": "fr:Rue du Bac (métro de Paris)"
  }
},
{
  "type": "node",
  "id": 264504832,
  "lat": 48.8784508,
  "lon": 2.3374732,
  "tags": {
    "STIF:zone": "1",
    "name": "Saint-Georges",
    "name:ru": "Сен-Жорж",
    "railway": "station",
    "ref:FR:RATP": "3110;1686",
    "station": "subway",
    "type:RATP": "metro",
    "wheelchair": "no",
    "wikipedia": "fr:Saint-Georges (métro de Paris)"
  }
},
{
  "type": "node",
  "id": 264505115,
  "lat": 48.8844760,
  "lon": 2.3384377,
  "tags": {
    "STIF:zone": "1",
    "name": "Abbesses",
    "name:ru": "Аббес",
    "railway": "station",
    "ref:FR:RATP": "1975",
    "station": "subway",
    "type:RATP": "metro",
    "wheelchair": "no",
    "wikipedia": "fr:Abbesses (métro de Paris)"
  }
},
{
  "type": "node",
  "id": 264505153,
  "lat": 48.8898183,
  "lon": 2.3386296,
  "tags": {
    "STIF:zone": "1",
    "name": "Lamarck - Caulaincourt",
    "name:ru": "Ламарк — Коленкур",
    "railway": "station",
    "ref:FR:RATP": "1879",
    "station": "subway",
    "type:RATP": "metro",
    "wheelchair": "no",
    "wikipedia": "fr:Lamarck - Caulaincourt (métro de Paris)"
  }
},
{
  "type": "node",
  "id": 264505450,
  "lat": 48.8925606,
  "lon": 2.3447103,
  "tags": {
    "STIF:zone": "1",
    "name": "Jules Joffrin",
    "name:ru": "Жюль Жоффрен",
    "railway": "station",
    "ref:FR:RATP": "1865",
    "station": "subway",
    "type:RATP": "metro",
    "wheelchair": "no",
    "wikipedia": "fr:Jules Joffrin (métro de Paris)"
  }
},
{
  "type": "node",
  "id": 264505930,
  "lat": 48.8977084,
  "lon": 2.3592969,
  "tags": {
    "STIF:zone": "1",
    "name": "Porte de la Chapelle",
    "railway": "station",
    "ref:FR:RATP": "1734",
    "station": "subway",
    "type:RATP": "metro",
    "wheelchair": "limited",
    "wikipedia": "fr:Porte de la Chapelle (métro de Paris)"
  }
},
{
  "type": "node",
  "id": 264505993,
  "lat": 48.8937935,
  "lon": 2.3477372,
  "tags": {
    "STIF:zone": "1",
    "name": "Simplon",
    "operator": "RATP",
    "public_transport": "stop_position",
    "railway": "station",
    "ref:FR:RATP": "1621",
    "station": "subway",
    "subway": "yes",
    "type:RATP": "metro",
    "wheelchair": "no",
    "wikipedia": "fr:Simplon (métro de Paris)"
  }
},
{
  "type": "node",
  "id": 264507100,
  "lat": 48.8873214,
  "lon": 2.3497042,
  "tags": {
    "STIF:zone": "1",
    "name": "Château Rouge",
    "operator": "RATP",
    "public_transport": "stop_position",
    "railway": "station",
    "ref:FR:RATP": "1960",
    "station": "subway",
    "subway": "yes",
    "type:RATP": "metro",
    "wheelchair": "no",
    "wikipedia": "fr:Château Rouge (métro de Paris)"
  }
},
{
  "type": "node",
  "id": 264508125,
  "lat": 48.8795577,
  "lon": 2.3571375,
  "tags": {
    "STIF:zone": "1",
    "name": "Gare du Nord (métro)",
    "operator": "RATP",
    "public_transport": "stop_position",
    "railway": "station",
    "ref:FR:RATP": "1842",
    "short_name": "Gare du Nord",
    "station": "subway",
    "subway": "yes",
    "type:RATP": "metro",
    "wheelchair": "yes",
    "wikipedia": "fr:Gare du Nord (métro de Paris)"
  }
},
{
  "type": "node",
  "id": 264508548,
  "lat": 48.8762027,
  "lon": 2.3579127,
  "tags": {
    "STIF:zone": "1",
    "alt_name": "Gare de l'Est (Verdun)",
    "name": "Gare de l'Est",
    "operator": "RATP",
    "public_transport": "stop_position",
    "railway": "station",
    "ref:FR:RATP": "1841",
    "station": "subway",
    "subway": "yes",
    "type:RATP": "metro",
    "wikipedia": "fr:Gare de l'Est (métro de Paris)"
  }
},
{
  "type": "node",
  "id": 264509793,
  "lat": 48.8638408,
  "lon": 2.3487041,
  "tags": {
    "STIF:zone": "1",
    "name": "Étienne Marcel",
    "operator": "RATP",
    "public_transport": "stop_position",
    "railway": "station",
    "ref:FR:RATP": "1914",
    "station": "subway",
    "subway": "yes",
    "type:RATP": "metro",
    "wheelchair": "no",
    "wikipedia": "fr:Étienne Marcel (métro de Paris)"
  }
},